$GNRMC,091932.00,A,4210.1721426,N,00841.2797010,W,0.028,,091122,,,A*7A
$GNVTG,,T,,M,0.028,N,0.053,K,A*31
$GNGGA,091932.00,4210.1721426,N,00841.2797010,W,1,12,0.68,455.450,M,50.788,M,,*5F
$GNGSA,A,3,06,17,19,20,03,09,07,04,11,,,,1.23,0.68,1.03*13
$GNGSA,A,3,68,69,70,78,79,84,85,,,,,,1.23,0.68,1.03*16
$GPGSV,3,1,10,03,13,089,17,04,41,050,36,06,75,283,20,07,31,149,43*7C
$GPGSV,3,2,10,09,80,055,32,11,39,310,31,17,11,200,28,19,28,224,19*73
$GPGSV,3,3,10,20,21,291,33,30,08,178,34*71
$GLGSV,3,1,10,68,16,053,16,69,59,015,28,70,37,267,21,77,01,005,*64
$GLGSV,3,2,10,78,17,055,21,79,12,105,30,83,05,167,08,84,60,202,11*69
$GLGSV,3,3,10,85,42,319,29,86,01,336,*66
$GNGLL,4210.1721426,N,00841.2797010,W,091932.00,A,A*60
$GNTXT,01,01,02,u-blox AG - www.u-blox.com*4E
$GNTXT,01,01,02,HW UBX-M8030 00080000*60
$GNTXT,01,01,02,EXT CORE 3.01 (db0c89)*68
$GNTXT,01,01,02,ROM BASE 2.01 (75331)*19
$GNTXT,01,01,02,FWVER=HPG 1.40REF*0B
$GNTXT,01,01,02,PROTVER=20.30*19
$GNTXT,01,01,02,FIS=0xEF4015 (200049)*57
$GNTXT,01,01,02,GPS;GLO;BDS*06
$GNTXT,01,01,02,QZSS*58
$GNTXT,01,01,02,GNSS OTP=GPS;GLO*37
$GNTXT,01,01,02,LLC=FFFFFFFF-FFFFFFED-FFFFFFFF-FFFFF79E-FFFFFF69*2E
$GNTXT,01,01,02,ANTSUPERV=AC SD PDoS SR*3E
$GNTXT,01,01,02,ANTSTATUS=OK*25
$GNTXT,01,01,02,PF=300*4B
$GNRMC,091933.00,A,4210.1721766,N,00841.2796768,W,0.063,,091122,,,A*7A
$GNVTG,,T,,M,0.063,N,0.116,K,A*3E
$GNGGA,091933.00,4210.1721766,N,00841.2796768,W,1,12,0.71,455.700,M,50.788,M,,*5E
$GNGSA,A,3,06,17,19,20,03,09,07,04,11,,,,1.31,0.71,1.11*1B
$GNGSA,A,3,68,69,70,78,79,84,85,,,,,,1.31,0.71,1.11*1E
$GPGSV,3,1,10,03,13,089,18,04,41,050,36,06,75,283,18,07,31,149,43*78
$GPGSV,3,2,10,09,80,055,31,11,39,310,31,17,11,200,29,19,28,224,18*70
$GPGSV,3,3,10,20,21,291,33,30,08,178,34*71
$GLGSV,3,1,10,68,16,053,17,69,59,015,28,70,37,267,21,77,01,005,*65
$GLGSV,3,2,10,78,17,055,21,79,12,105,30,83,05,167,08,84,60,202,08*61
$GLGSV,3,3,10,85,42,319,28,86,01,336,*67
$GNGLL,4210.1721766,N,00841.2796768,W,091933.00,A,A*6F
$GNRMC,091934.00,A,4210.1722045,N,00841.2796555,W,0.012,,091122,,,A*72
$GNVTG,,T,,M,0.012,N,0.022,K,A*3E
$GNGGA,091934.00,4210.1722045,N,00841.2796555,W,1,12,0.68,455.953,M,50.788,M,,*50
$GNGSA,A,3,06,17,19,20,03,09,07,04,11,,,,1.23,0.68,1.03*13
$GNGSA,A,3,68,69,70,78,79,84,85,,,,,,1.23,0.68,1.03*16
$GPGSV,3,1,10,03,13,089,17,04,41,050,36,06,75,283,18,07,31,149,43*77
$GPGSV,3,2,10,09,80,055,31,11,39,310,30,17,11,200,28,19,28,224,17*7F
$GPGSV,3,3,10,20,21,291,33,30,08,178,34*71
$GLGSV,3,1,10,68,16,053,11,69,59,015,28,70,37,267,21,77,01,005,*63
$GLGSV,3,2,10,78,17,055,20,79,12,105,30,83,05,167,07,84,59,202,10*6C
$GLGSV,3,3,10,85,42,319,28,86,01,336,*67
$GNGLL,4210.1722045,N,00841.2796555,W,091934.00,A,A*61
$GNRMC,091935.00,A,4210.1722275,N,00841.2796425,W,0.039,,091122,,,A*7D
$GNVTG,,T,,M,0.039,N,0.072,K,A*32
$GNGGA,091935.00,4210.1722275,N,00841.2796425,W,1,12,0.68,456.126,M,50.788,M,,*5F
$GNGSA,A,3,06,17,19,20,03,09,07,04,11,,,,1.23,0.68,1.03*13
$GNGSA,A,3,68,69,70,78,79,84,85,,,,,,1.23,0.68,1.03*16
$GPGSV,3,1,10,03,13,089,16,04,41,050,36,06,75,283,18,07,31,149,43*76
$GPGSV,3,2,10,09,80,055,32,11,39,310,30,17,11,200,27,19,28,224,18*7C
$GPGSV,3,3,10,20,21,291,33,30,08,178,34*71
$GLGSV,3,1,10,68,16,053,16,69,59,015,28,70,37,267,22,77,01,005,*67
$GLGSV,3,2,10,78,17,055,18,79,12,105,30,83,05,167,09,84,59,202,10*69
$GLGSV,3,3,10,85,42,318,28,86,01,336,*66
$GNGLL,4210.1722275,N,00841.2796425,W,091935.00,A,A*67
$GNRMC,091936.00,A,4210.1722538,N,00841.2796252,W,0.034,,091122,,,A*7B
$GNVTG,,T,,M,0.034,N,0.062,K,A*3E
$GNGGA,091936.00,4210.1722538,N,00841.2796252,W,1,12,0.71,456.313,M,50.788,M,,*58
$GNGSA,A,3,06,17,19,20,03,09,07,04,11,,,,1.31,0.71,1.11*1B
$GNGSA,A,3,68,69,70,78,79,84,85,,,,,,1.31,0.71,1.11*1E
$GPGSV,3,1,10,03,13,089,16,04,41,050,36,06,75,283,19,07,31,149,43*77
$GPGSV,3,2,10,09,80,055,32,11,39,310,30,17,11,200,27,19,28,224,18*7C
$GPGSV,3,3,10,20,21,291,33,30,08,178,34*71
$GLGSV,3,1,10,68,16,053,14,69,59,015,29,70,37,267,22,77,01,005,*64
$GLGSV,3,2,10,78,17,055,18,79,12,105,30,83,05,167,08,84,59,202,12*6A
$GLGSV,3,3,10,85,42,318,28,86,02,336,*65
$GNGLL,4210.1722538,N,00841.2796252,W,091936.00,A,A*6C
$GNRMC,091937.00,A,4210.1722699,N,00841.2796266,W,0.045,,091122,,,A*73
$GNVTG,,T,,M,0.045,N,0.084,K,A*30
$GNGGA,091937.00,4210.1722699,N,00841.2796266,W,1,12,0.68,456.552,M,50.788,M,,*5D
$GNGSA,A,3,06,17,19,20,03,09,07,04,11,,,,1.23,0.68,1.03*13
$GNGSA,A,3,68,69,70,78,79,84,85,,,,,,1.23,0.68,1.03*16
$GPGSV,3,1,10,03,13,089,16,04,41,050,36,06,75,283,18,07,31,149,44*71
$GPGSV,3,2,10,09,80,055,32,11,39,310,30,17,11,200,26,19,28,224,16*73
$GPGSV,3,3,10,20,21,291,32,30,08,178,34*70
$GLGSV,3,1,10,68,16,053,18,69,59,015,29,70,37,267,23,77,01,005,*69
$GLGSV,3,2,10,78,17,055,17,79,12,105,30,83,05,167,10,84,59,202,09*66
$GLGSV,3,3,10,85,42,318,28,86,02,336,*65
$GNGLL,4210.1722699,N,00841.2796266,W,091937.00,A,A*62
$GNRMC,091938.00,A,4210.1722858,N,00841.2796473,W,0.012,,091122,,,A*7F
$GNVTG,,T,,M,0.012,N,0.021,K,A*3D
$GNGGA,091938.00,4210.1722858,N,00841.2796473,W,1,12,0.74,456.570,M,50.788,M,,*5E
$GNGSA,A,3,06,17,19,20,03,09,07,04,11,,,,1.33,0.74,1.11*1C
$GNGSA,A,3,68,69,70,78,79,84,85,,,,,,1.33,0.74,1.11*19
$GPGSV,3,1,10,03,13,089,15,04,41,050,36,06,75,283,19,07,31,149,44*73
$GPGSV,3,2,10,09,80,055,32,11,39,310,30,17,11,200,25,19,28,224,13*75
$GPGSV,3,3,10,20,21,291,32,30,08,178,34*70
$GLGSV,3,1,10,68,16,053,15,69,59,015,31,70,37,267,23,77,01,005,*6D
$GLGSV,3,2,10,78,17,055,16,79,12,105,30,83,05,167,08,84,59,202,09*6E
$GLGSV,3,3,10,85,42,318,29,86,02,336,*64
$GNGLL,4210.1722858,N,00841.2796473,W,091938.00,A,A*6C
$GNRMC,091939.00,A,4210.1722989,N,00841.2796512,W,0.062,,091122,,,A*72
$GNVTG,,T,,M,0.062,N,0.115,K,A*3C
$GNGGA,091939.00,4210.1722989,N,00841.2796512,W,1,12,0.74,456.657,M,50.788,M,,*52
$GNGSA,A,3,06,17,19,20,03,09,07,04,11,,,,1.33,0.74,1.11*1C
$GNGSA,A,3,68,69,70,78,79,84,85,,,,,,1.33,0.74,1.11*19
$GPGSV,3,1,10,03,13,089,15,04,41,050,36,06,75,283,20,07,31,149,44*79
$GPGSV,3,2,10,09,80,055,32,11,39,310,30,17,11,200,24,19,28,224,09*7F
$GPGSV,3,3,10,20,21,291,32,30,08,178,35*71
$GLGSV,3,1,10,68,16,053,17,69,59,015,32,70,37,267,23,77,01,005,*6C
$GLGSV,3,2,10,78,17,055,16,79,12,105,30,83,05,167,10,84,59,202,14*6B
$GLGSV,3,3,10,85,42,318,29,86,02,336,*64
$GNGLL,4210.1722989,N,00841.2796512,W,091939.00,A,A*66
$GNRMC,091940.00,A,4210.1722979,N,00841.2796891,W,0.047,,091122,,,A*72
$GNVTG,,T,,M,0.047,N,0.087,K,A*31
$GNGGA,091940.00,4210.1722979,N,00841.2796891,W,1,12,0.83,456.716,M,50.788,M,,*59
$GNGSA,A,3,06,17,20,03,09,07,04,11,,,,,1.42,0.83,1.16*1D
$GNGSA,A,3,68,69,70,78,79,84,85,,,,,,1.42,0.83,1.16*10
$GPGSV,3,1,10,03,13,089,15,04,41,050,36,06,75,283,19,07,31,149,44*73
$GPGSV,3,2,10,09,80,055,32,11,39,310,30,17,11,200,24,19,28,224,*76
$GPGSV,3,3,10,20,21,291,32,30,08,178,35*71
$GLGSV,3,1,10,68,16,053,19,69,59,015,32,70,37,267,24,77,01,005,*65
$GLGSV,3,2,10,78,17,055,17,79,12,105,31,83,05,167,08,84,59,202,13*65
$GLGSV,3,3,10,85,42,318,29,86,02,336,*64
$GNGLL,4210.1722979,N,00841.2796891,W,091940.00,A,A*61
$GNRMC,091941.00,A,4210.1722798,N,00841.2797621,W,0.065,,091122,,,A*76
$GNVTG,,T,,M,0.065,N,0.120,K,A*3D
$GNGGA,091941.00,4210.1722798,N,00841.2797621,W,1,12,0.83,456.796,M,50.788,M,,*55
$GNGSA,A,3,06,17,20,03,09,07,04,11,,,,,1.42,0.83,1.16*1D
$GNGSA,A,3,68,69,70,78,79,84,85,,,,,,1.42,0.83,1.16*10
$GPGSV,3,1,10,03,13,090,15,04,41,050,37,06,75,283,18,07,31,149,44*7B
$GPGSV,3,2,10,09,80,055,32,11,39,310,30,17,11,200,24,19,28,224,16*71
$GPGSV,3,3,10,20,21,291,32,30,08,178,35*71
$GLGSV,3,1,10,68,16,053,20,69,59,015,33,70,37,267,23,77,01,005,*69
$GLGSV,3,2,10,78,17,055,16,79,12,105,31,83,05,167,09,84,59,202,13*65
$GLGSV,3,3,10,85,42,318,29,86,02,336,*64
$GNGLL,4210.1722798,N,00841.2797621,W,091941.00,A,A*65
$GNRMC,091942.00,A,4210.1722630,N,00841.2798238,W,0.077,,091122,,,A*76
$GNVTG,,T,,M,0.077,N,0.143,K,A*3B
$GNGGA,091942.00,4210.1722630,N,00841.2798238,W,1,12,0.83,456.800,M,50.788,M,,*56
$GNGSA,A,3,06,17,20,03,09,07,04,11,,,,,1.42,0.83,1.16*1D
$GNGSA,A,3,68,69,70,78,79,84,85,,,,,,1.42,0.83,1.16*10
$GPGSV,3,1,10,03,13,090,15,04,40,050,36,06,75,283,17,07,31,149,44*74
$GPGSV,3,2,10,09,80,055,32,11,39,310,30,17,11,200,25,19,28,224,16*70
$GPGSV,3,3,10,20,21,291,32,30,08,178,35*71
$GLGSV,3,1,10,68,16,053,21,69,59,015,33,70,37,267,23,77,01,005,*68
$GLGSV,3,2,10,78,17,055,16,79,12,105,31,83,05,167,08,84,59,202,11*66
$GLGSV,3,3,10,85,42,318,29,86,02,336,*64
$GNGLL,4210.1722630,N,00841.2798238,W,091942.00,A,A*66
$GNRMC,091943.00,A,4210.1722497,N,00841.2798778,W,0.019,,091122,,,A*71
$GNVTG,,T,,M,0.019,N,0.035,K,A*33
$GNGGA,091943.00,4210.1722497,N,00841.2798778,W,1,12,0.83,456.809,M,50.788,M,,*50
$GNGSA,A,3,06,17,20,03,09,07,04,11,,,,,1.42,0.83,1.16*1D
$GNGSA,A,3,68,69,70,78,79,84,85,,,,,,1.42,0.83,1.16*10
$GPGSV,3,1,10,03,13,090,15,04,40,050,36,06,75,283,18,07,31,149,44*7B
$GPGSV,3,2,10,09,80,055,31,11,39,310,30,17,11,200,25,19,28,224,18*7D
$GPGSV,3,3,10,20,21,291,32,30,08,178,35*71
$GLGSV,3,1,10,68,16,053,21,69,59,015,33,70,37,267,23,77,01,005,*68
$GLGSV,3,2,10,78,17,055,17,79,12,105,31,83,05,167,12,84,59,202,13*6E
$GLGSV,3,3,10,85,42,318,29,86,02,336,*64
$GNGLL,4210.1722497,N,00841.2798778,W,091943.00,A,A*69
$GNRMC,091944.00,A,4210.1722151,N,00841.2799182,W,0.020,,091122,,,A*71
$GNVTG,,T,,M,0.020,N,0.037,K,A*3B
$GNGGA,091944.00,4210.1722151,N,00841.2799182,W,1,12,0.83,456.875,M,50.788,M,,*51
$GNGSA,A,3,06,17,19,20,03,09,07,04,11,,,,1.42,0.83,1.16*15
$GNGSA,A,3,68,69,70,78,79,84,85,,,,,,1.42,0.83,1.16*10
$GPGSV,3,1,10,03,13,090,14,04,40,050,36,06,75,281,16,07,31,149,44*76
$GPGSV,3,2,10,09,80,055,32,11,39,310,30,17,11,200,26,19,28,224,19*7C
$GPGSV,3,3,10,20,21,291,31,30,08,178,35*72
$GLGSV,3,1,10,68,16,053,21,69,59,015,33,70,37,267,23,77,01,005,*68
$GLGSV,3,2,10,78,17,055,16,79,12,105,31,83,05,167,12,84,59,202,11*6D
$GLGSV,3,3,10,85,42,318,29,86,02,336,*64
$GNGLL,4210.1722151,N,00841.2799182,W,091944.00,A,A*63
$GNRMC,091945.00,A,4210.1721782,N,00841.2799695,W,0.044,,091122,,,A*78
$GNVTG,,T,,M,0.044,N,0.081,K,A*34
$GNGGA,091945.00,4210.1721782,N,00841.2799695,W,1,12,0.83,456.950,M,50.788,M,,*5C
$GNGSA,A,3,06,17,19,20,03,09,07,04,11,,,,1.42,0.83,1.16*15
$GNGSA,A,3,68,69,70,78,79,84,85,,,,,,1.42,0.83,1.16*10
$GPGSV,3,1,10,03,13,090,15,04,40,050,36,06,75,281,17,07,31,149,44*76
$GPGSV,3,2,10,09,80,055,32,11,39,310,30,17,11,200,26,19,28,224,19*7C
$GPGSV,3,3,10,20,21,291,31,30,08,178,35*72
$GLGSV,3,1,10,68,16,053,21,69,59,015,33,70,37,267,22,77,01,005,*69
$GLGSV,3,2,10,78,17,055,17,79,12,105,31,83,05,167,14,84,59,202,11*6A
$GLGSV,3,3,10,85,42,318,28,86,02,336,*65
$GNGLL,4210.1721782,N,00841.2799695,W,091945.00,A,A*68
$GNRMC,091946.00,A,4210.1721707,N,00841.2800079,W,0.075,,091122,,,A*7F
$GNVTG,,T,,M,0.075,N,0.140,K,A*3A
$GNGGA,091946.00,4210.1721707,N,00841.2800079,W,1,12,0.83,456.898,M,50.788,M,,*5C
$GNGSA,A,3,06,17,19,20,03,09,07,04,11,,,,1.42,0.83,1.16*15
$GNGSA,A,3,68,69,70,78,79,84,85,,,,,,1.42,0.83,1.16*10
$GPGSV,3,1,10,03,13,090,15,04,40,050,36,06,75,281,18,07,31,149,44*79
$GPGSV,3,2,10,09,80,055,32,11,39,310,30,17,11,200,26,19,28,224,18*7D
$GPGSV,3,3,10,20,21,291,31,30,08,178,34*73
$GLGSV,3,1,10,68,16,053,21,69,59,015,33,70,37,267,23,77,01,005,*68
$GLGSV,3,2,10,78,17,055,15,79,12,105,31,83,05,167,10,84,59,202,12*6F
$GLGSV,3,3,10,85,42,318,28,86,02,336,*65
$GNGLL,4210.1721707,N,00841.2800079,W,091946.00,A,A*6D
$GNRMC,091947.00,A,4210.1721479,N,00841.2800529,W,0.016,,091122,,,A*71
$GNVTG,,T,,M,0.016,N,0.030,K,A*39
$GNGGA,091947.00,4210.1721479,N,00841.2800529,W,1,12,0.83,456.938,M,50.788,M,,*5C
$GNGSA,A,3,06,17,19,20,03,09,07,04,11,,,,1.42,0.83,1.16*15
$GNGSA,A,3,68,69,70,78,79,84,85,,,,,,1.42,0.83,1.16*10
$GPGSV,3,1,10,03,13,090,16,04,40,050,36,06,75,281,20,07,31,149,44*71
$GPGSV,3,2,10,09,80,054,32,11,39,310,30,17,11,200,26,19,28,224,19*7D
$GPGSV,3,3,10,20,21,291,30,30,08,178,35*73
$GLGSV,3,1,10,68,16,053,21,69,59,015,33,70,37,267,23,77,01,005,*68
$GLGSV,3,2,10,78,17,055,15,79,12,105,32,83,05,167,11,84,59,202,14*6B
$GLGSV,3,3,10,85,42,318,27,86,02,336,*6A
$GNGLL,4210.1721479,N,00841.2800529,W,091947.00,A,A*66
$GNRMC,091948.00,A,4210.1721241,N,00841.2801359,W,0.051,,091122,,,A*70
$GNVTG,,T,,M,0.051,N,0.095,K,A*35
$GNGGA,091948.00,4210.1721241,N,00841.2801359,W,1,12,0.83,456.897,M,50.788,M,,*5A
$GNGSA,A,3,06,17,19,20,03,09,07,04,11,,,,1.42,0.83,1.16*15
$GNGSA,A,3,68,69,70,78,79,84,85,,,,,,1.42,0.83,1.16*10
$GPGSV,3,1,10,03,13,090,16,04,40,050,36,06,75,281,20,07,31,149,44*71
$GPGSV,3,2,10,09,80,054,32,11,39,310,30,17,11,200,26,19,28,224,19*7D
$GPGSV,3,3,10,20,21,291,30,30,08,178,35*73
$GLGSV,3,1,10,68,16,053,21,69,59,015,33,70,37,267,23,77,01,005,*68
$GLGSV,3,2,10,78,17,055,13,79,12,105,32,83,05,167,10,84,59,202,10*68
$GLGSV,3,3,10,85,42,318,27,86,02,336,*6A
$GNGLL,4210.1721241,N,00841.2801359,W,091948.00,A,A*64
$GNRMC,091949.00,A,4210.1721175,N,00841.2802208,W,0.021,,091122,,,A*74
$GNVTG,,T,,M,0.021,N,0.040,K,A*3A
$GNGGA,091949.00,4210.1721175,N,00841.2802208,W,1,12,0.83,456.817,M,50.788,M,,*51
$GNGSA,A,3,06,17,19,20,03,09,07,04,11,,,,1.42,0.83,1.16*15
$GNGSA,A,3,68,69,70,78,79,84,85,,,,,,1.42,0.83,1.16*10
$GPGSV,3,1,10,03,13,090,16,04,40,050,36,06,75,281,22,07,31,149,44*73
$GPGSV,3,2,10,09,80,054,32,11,40,310,30,17,11,200,26,19,28,224,20*79
$GPGSV,3,3,10,20,21,291,30,30,08,178,35*73
$GLGSV,3,1,10,68,16,053,20,69,59,015,33,70,37,267,23,77,01,005,*69
$GLGSV,3,2,10,78,17,055,07,79,12,105,32,83,05,167,07,84,59,202,09*63
$GLGSV,3,3,10,85,42,318,27,86,02,336,*6A
$GNGLL,4210.1721175,N,00841.2802208,W,091949.00,A,A*67
$GNRMC,091950.00,A,4210.1721135,N,00841.2803112,W,0.045,,091122,,,A*73
$GNVTG,,T,,M,0.045,N,0.083,K,A*37
$GNGGA,091950.00,4210.1721135,N,00841.2803112,W,1,12,0.83,456.703,M,50.788,M,,*5E
$GNGSA,A,3,06,17,19,20,03,09,07,04,11,,,,1.42,0.83,1.16*15
$GNGSA,A,3,68,69,70,78,79,84,85,,,,,,1.42,0.83,1.16*10
$GPGSV,3,1,10,03,13,090,17,04,40,050,36,06,75,281,22,07,31,149,44*72
$GPGSV,3,2,10,09,80,054,32,11,40,310,30,17,11,200,25,19,28,224,20*7A
$GPGSV,3,3,10,20,21,291,30,30,08,178,35*73
$GLGSV,3,1,10,68,16,053,20,69,59,015,33,70,37,267,23,77,01,005,*69
$GLGSV,3,2,10,78,17,055,10,79,12,105,32,83,05,167,12,84,59,202,11*68
$GLGSV,3,3,10,85,42,318,27,86,02,336,*6A
$GNGLL,4210.1721135,N,00841.2803112,W,091950.00,A,A*62
$GNRMC,091951.00,A,4210.1721052,N,00841.2804263,W,0.032,,091122,,,A*70
$GNVTG,,T,,M,0.032,N,0.058,K,A*31
$GNGGA,091951.00,4210.1721052,N,00841.2804263,W,1,12,0.90,456.556,M,50.788,M,,*5D
$GNGSA,A,3,06,17,19,20,03,09,07,04,11,,,,1.59,0.90,1.32*1B
$GNGSA,A,3,68,69,70,78,79,84,85,,,,,,1.59,0.90,1.32*1E
$GPGSV,3,1,10,03,13,090,17,04,40,050,37,06,75,281,23,07,31,149,44*72
$GPGSV,3,2,10,09,80,054,32,11,40,310,30,17,11,200,25,19,28,224,20*7A
$GPGSV,3,3,10,20,21,291,30,30,08,178,35*73
$GLGSV,3,1,10,68,16,053,20,69,59,015,34,70,37,267,24,77,01,005,*69
$GLGSV,3,2,10,78,17,055,10,79,12,105,32,83,05,167,09,84,59,202,11*62
$GLGSV,3,3,10,85,42,318,27,86,02,336,*6A
$GNGLL,4210.1721052,N,00841.2804263,W,091951.00,A,A*61
$GNRMC,091952.00,A,4210.1720855,N,00841.2805368,W,0.084,,091122,,,A*7B
$GNVTG,,T,,M,0.084,N,0.156,K,A*33
$GNGGA,091952.00,4210.1720855,N,00841.2805368,W,1,12,0.83,456.536,M,50.788,M,,*5F
$GNGSA,A,3,06,19,20,03,09,07,04,11,,,,,1.50,0.83,1.25*10
$GNGSA,A,3,68,69,70,78,79,84,85,,,,,,1.50,0.83,1.25*13
$GPGSV,3,1,10,03,13,090,17,04,40,050,37,06,75,281,23,07,31,149,44*72
$GPGSV,3,2,10,09,80,054,33,11,40,310,30,17,11,200,,19,28,224,20*7C
$GPGSV,3,3,10,20,21,291,29,30,08,178,35*7B
$GLGSV,3,1,10,68,16,053,20,69,59,015,34,70,37,267,24,77,01,005,*69
$GLGSV,3,2,10,78,17,055,09,79,12,105,32,83,05,167,12,84,59,202,16*67
$GLGSV,3,3,10,85,42,318,26,86,02,336,*6B
$GNGLL,4210.1720855,N,00841.2805368,W,091952.00,A,A*67
$GNRMC,091953.00,A,4210.1720641,N,00841.2806359,W,0.044,,091122,,,A*7C
$GNVTG,,T,,M,0.044,N,0.081,K,A*34
$GNGGA,091953.00,4210.1720641,N,00841.2806359,W,1,12,0.83,456.510,M,50.788,M,,*50
$GNGSA,A,3,06,19,20,03,09,07,04,11,,,,,1.50,0.83,1.25*10
$GNGSA,A,3,68,69,70,78,79,84,85,,,,,,1.50,0.83,1.25*13
$GPGSV,3,1,10,03,13,090,17,04,40,050,36,06,75,281,23,07,31,149,44*73
$GPGSV,3,2,10,09,80,054,33,11,40,310,30,17,11,200,,19,28,224,19*76
$GPGSV,3,3,10,20,21,291,29,30,08,178,35*7B
$GLGSV,3,1,10,68,16,053,20,69,59,015,34,70,37,267,25,77,01,005,*68
$GLGSV,3,2,10,78,17,055,08,79,12,105,32,83,05,167,10,84,59,202,12*60
$GLGSV,3,3,10,85,42,318,26,86,02,336,*6B
$GNGLL,4210.1720641,N,00841.2806359,W,091953.00,A,A*6C
$GNRMC,091954.00,A,4210.1720412,N,00841.2807361,W,0.093,,091122,,,A*7F
$GNVTG,,T,,M,0.093,N,0.172,K,A*33
$GNGGA,091954.00,4210.1720412,N,00841.2807361,W,1,12,0.86,456.451,M,50.788,M,,*58
$GNGSA,A,3,06,19,20,03,09,07,04,11,,,,,1.53,0.86,1.27*14
$GNGSA,A,3,68,69,70,78,79,84,85,,,,,,1.53,0.86,1.27*17
$GPGSV,3,1,10,03,13,090,17,04,40,050,36,06,75,281,22,07,31,149,44*72
$GPGSV,3,2,10,09,80,054,33,11,40,310,30,17,11,200,,19,28,224,19*76
$GPGSV,3,3,10,20,21,291,29,30,08,178,35*7B
$GLGSV,3,1,10,68,16,053,21,69,59,015,34,70,37,267,24,77,01,005,*68
$GLGSV,3,2,10,78,17,055,09,79,12,105,31,83,05,167,09,84,59,202,13*6B
$GLGSV,3,3,10,85,42,318,25,86,02,336,*68
$GNGLL,4210.1720412,N,00841.2807361,W,091954.00,A,A*65
$GNRMC,091955.00,A,4210.1720224,N,00841.2808336,W,0.055,,091122,,,A*7A
$GNVTG,,T,,M,0.055,N,0.103,K,A*3F
$GNGGA,091955.00,4210.1720224,N,00841.2808336,W,1,12,0.83,456.406,M,50.788,M,,*50
$GNGSA,A,3,06,19,20,03,09,07,04,11,,,,,1.50,0.83,1.25*10
$GNGSA,A,3,68,69,70,78,79,84,85,,,,,,1.50,0.83,1.25*13
$GPGSV,3,1,10,03,13,090,16,04,40,050,36,06,75,281,21,07,31,149,44*70
$GPGSV,3,2,10,09,80,054,34,11,40,310,29,17,11,200,,19,28,224,20*73
$GPGSV,3,3,10,20,21,291,29,30,08,178,35*7B
$GLGSV,3,1,10,68,16,053,21,69,59,015,33,70,37,267,25,77,01,005,*6E
$GLGSV,3,2,10,78,17,055,12,79,12,105,31,83,05,167,10,84,59,202,17*6D
$GLGSV,3,3,10,85,42,318,25,86,02,336,*68
$GNGLL,4210.1720224,N,00841.2808336,W,091955.00,A,A*6A
$GNRMC,091956.00,A,4210.1720076,N,00841.2809290,W,0.018,,091122,,,A*79
$GNVTG,,T,,M,0.018,N,0.033,K,A*34
$GNGGA,091956.00,4210.1720076,N,00841.2809290,W,1,12,0.83,456.332,M,50.788,M,,*5A
$GNGSA,A,3,06,19,20,03,09,07,04,11,,,,,1.50,0.83,1.25*10
$GNGSA,A,3,68,69,70,78,79,84,85,,,,,,1.50,0.83,1.25*13
$GPGSV,3,1,10,03,13,090,14,04,40,050,36,06,75,281,20,07,31,149,44*73
$GPGSV,3,2,10,09,80,054,34,11,40,310,29,17,11,200,,19,28,224,19*79
$GPGSV,3,3,10,20,21,291,30,30,08,178,35*73
$GLGSV,3,1,10,68,16,053,21,69,59,015,34,70,37,267,25,77,01,005,*69
$GLGSV,3,2,10,78,17,055,13,79,12,105,31,83,05,167,09,84,59,202,16*65
$GLGSV,3,3,10,85,42,318,25,86,02,336,*68
$GNGLL,4210.1720076,N,00841.2809290,W,091956.00,A,A*60
$GNRMC,091957.00,A,4210.1720024,N,00841.2809767,W,0.063,,091122,,,A*7E
$GNVTG,,T,,M,0.063,N,0.116,K,A*3E
$GNGGA,091957.00,4210.1720024,N,00841.2809767,W,1,12,0.95,456.259,M,50.788,M,,*5A
$GNGSA,A,3,06,19,20,03,09,07,04,11,,,,,1.65,0.95,1.35*10
$GNGSA,A,3,68,69,70,78,79,85,,,,,,,1.65,0.95,1.35*1F
$GPGSV,3,1,10,03,13,090,13,04,40,050,36,06,75,281,21,07,31,149,44*75
$GPGSV,3,2,10,09,80,054,34,11,40,310,30,17,11,200,,19,27,223,19*79
$GPGSV,3,3,10,20,21,291,30,30,08,178,35*73
$GLGSV,3,1,10,68,16,053,20,69,59,015,33,70,37,267,25,77,01,005,*6F
$GLGSV,3,2,10,78,17,055,12,79,12,105,31,83,05,167,09,84,59,202,05*66
$GLGSV,3,3,10,85,42,318,25,86,02,336,*68
$GNGLL,4210.1720024,N,00841.2809767,W,091957.00,A,A*6B
$GNRMC,091958.00,A,4210.1719933,N,00841.2810307,W,0.038,,091122,,,A*70
$GNVTG,,T,,M,0.038,N,0.070,K,A*31
$GNGGA,091958.00,4210.1719933,N,00841.2810307,W,1,12,0.90,456.106,M,50.788,M,,*56
$GNGSA,A,3,06,19,20,03,09,07,04,11,,,,,1.60,0.90,1.32*17
$GNGSA,A,3,68,69,70,78,79,85,,,,,,,1.60,0.90,1.32*18
$GPGSV,3,1,10,03,13,090,14,04,40,050,36,06,75,281,21,07,31,149,44*72
$GPGSV,3,2,10,09,80,054,34,11,40,310,29,17,11,200,,19,27,223,18*70
$GPGSV,3,3,10,20,21,291,29,30,08,178,35*7B
$GLGSV,3,1,10,68,16,053,20,69,59,015,34,70,37,267,25,77,01,005,*68
$GLGSV,3,2,10,78,17,055,08,79,12,105,31,83,05,167,10,84,59,202,10*61
$GLGSV,3,3,10,85,42,318,25,86,02,336,*68
$GNGLL,4210.1719933,N,00841.2810307,W,091958.00,A,A*6B
$GNRMC,091959.00,A,4210.1719870,N,00841.2810973,W,0.048,,091122,,,A*79
$GNVTG,,T,,M,0.048,N,0.088,K,A*31
$GNGGA,091959.00,4210.1719870,N,00841.2810973,W,1,12,0.83,455.926,M,50.788,M,,*53
$GNGSA,A,3,06,19,20,03,09,07,04,11,,,,,1.50,0.83,1.25*10
$GNGSA,A,3,68,69,70,78,79,84,85,,,,,,1.50,0.83,1.25*13
$GPGSV,3,1,10,03,13,090,11,04,40,050,36,06,75,281,22,07,31,149,44*74
$GPGSV,3,2,10,09,80,054,35,11,40,310,30,17,11,200,,19,27,223,17*76
$GPGSV,3,3,10,20,21,291,30,30,08,178,35*73
$GLGSV,3,1,10,68,16,053,20,69,59,015,34,70,37,267,25,77,01,005,*68
$GLGSV,3,2,10,78,17,055,10,79,12,105,31,83,05,167,06,84,59,202,16*69
$GLGSV,3,3,10,85,42,318,25,86,02,336,*68
$GNGLL,4210.1719870,N,00841.2810973,W,091959.00,A,A*65
$GNRMC,092000.00,A,4210.1719968,N,00841.2811109,W,0.086,,091122,,,A*71
$GNVTG,,T,,M,0.086,N,0.159,K,A*3E
$GNGGA,092000.00,4210.1719968,N,00841.2811109,W,1,12,0.83,455.636,M,50.788,M,,*57
$GNGSA,A,3,06,19,20,03,09,07,04,11,,,,,1.50,0.83,1.25*10
$GNGSA,A,3,68,69,70,78,79,84,85,,,,,,1.50,0.83,1.25*13
$GPGSV,3,1,10,03,13,090,09,04,40,050,36,06,75,281,21,07,31,149,44*7E
$GPGSV,3,2,10,09,80,054,35,11,40,310,30,17,11,200,,19,27,223,17*76
$GPGSV,3,3,10,20,21,291,29,30,08,178,34*7A
$GLGSV,3,1,10,68,16,053,20,69,59,015,34,70,37,267,24,77,01,005,*69
$GLGSV,3,2,10,78,17,055,10,79,12,105,31,83,05,167,08,84,59,202,17*66
$GLGSV,3,3,10,85,42,318,25,86,02,336,*68
$GNGLL,4210.1719968,N,00841.2811109,W,092000.00,A,A*6F
$GNRMC,092001.00,A,4210.1720074,N,00841.2811527,W,0.008,,091122,,,A*70
$GNVTG,,T,,M,0.008,N,0.015,K,A*31
$GNGGA,092001.00,4210.1720074,N,00841.2811527,W,1,12,0.83,455.372,M,50.788,M,,*55
$GNGSA,A,3,06,19,20,03,09,07,04,11,,,,,1.50,0.83,1.25*10
$GNGSA,A,3,68,69,70,78,79,84,85,,,,,,1.50,0.83,1.25*13
$GPGSV,3,1,10,03,13,090,10,04,40,050,36,06,75,281,22,07,31,149,44*75
$GPGSV,3,2,10,09,80,054,35,11,40,310,29,17,11,200,,19,27,223,16*7F
$GPGSV,3,3,10,20,21,291,29,30,08,178,34*7A
$GLGSV,3,1,10,68,16,053,20,69,59,015,34,70,37,267,25,77,01,005,*68
$GLGSV,3,2,10,78,17,055,13,79,12,105,31,83,05,167,11,84,59,202,18*62
$GLGSV,3,3,10,85,42,318,25,86,02,336,*68
$GNGLL,4210.1720074,N,00841.2811527,W,092001.00,A,A*68
$GNRMC,092002.00,A,4210.1720199,N,00841.2811965,W,0.051,,091122,,,A*77
$GNVTG,,T,,M,0.051,N,0.094,K,A*34
$GNGGA,092002.00,4210.1720199,N,00841.2811965,W,1,12,0.83,455.060,M,50.788,M,,*5E
$GNGSA,A,3,06,19,20,03,09,07,04,11,,,,,1.50,0.83,1.25*10
$GNGSA,A,3,68,69,70,78,79,84,85,,,,,,1.50,0.83,1.25*13
$GPGSV,3,1,10,03,13,090,10,04,40,050,36,06,75,281,22,07,31,149,44*75
$GPGSV,3,2,10,09,80,054,35,11,40,310,29,17,11,200,,19,27,223,14*7D
$GPGSV,3,3,10,20,21,291,28,30,08,178,34*7B
$GLGSV,3,1,10,68,16,053,19,69,59,015,34,70,37,267,24,77,01,005,*63
$GLGSV,3,2,10,78,17,055,11,79,12,105,32,83,05,167,12,84,59,202,18*60
$GLGSV,3,3,10,85,42,318,25,86,02,336,*68
$GNGLL,4210.1720199,N,00841.2811965,W,092002.00,A,A*63
$GNRMC,092003.00,A,4210.1720157,N,00841.2812443,W,0.056,,091122,,,A*79
$GNVTG,,T,,M,0.056,N,0.105,K,A*3A
$GNGGA,092003.00,4210.1720157,N,00841.2812443,W,1,12,0.87,454.825,M,50.788,M,,*5B
$GNGSA,A,3,06,19,20,03,09,07,04,11,,,,,1.60,0.87,1.33*10
$GNGSA,A,3,68,69,70,78,79,84,85,,,,,,1.60,0.87,1.33*13
$GPGSV,3,1,10,03,13,090,15,04,40,050,36,06,75,281,22,07,31,149,43*77
$GPGSV,3,2,10,09,80,054,35,11,40,310,29,17,11,200,,19,27,223,14*7D
$GPGSV,3,3,10,20,21,291,28,30,08,178,34*7B
$GLGSV,3,1,10,68,16,053,19,69,59,015,34,70,37,267,24,77,01,005,*63
$GLGSV,3,2,10,78,17,055,14,79,12,105,32,83,05,167,10,84,59,202,19*66
$GLGSV,3,3,10,85,42,318,25,86,02,336,*68
$GNGLL,4210.1720157,N,00841.2812443,W,092003.00,A,A*6A
$GNRMC,092004.00,A,4210.1720168,N,00841.2812827,W,0.045,,091122,,,A*7E
$GNVTG,,T,,M,0.045,N,0.083,K,A*37
$GNGGA,092004.00,4210.1720168,N,00841.2812827,W,1,12,0.84,454.566,M,50.788,M,,*57
$GNGSA,A,3,06,19,20,03,09,07,04,11,,,,,1.54,0.84,1.30*17
$GNGSA,A,3,68,69,70,78,79,84,85,,,,,,1.54,0.84,1.30*14
$GPGSV,3,1,10,03,13,090,10,04,40,050,36,06,75,281,21,07,31,149,43*71
$GPGSV,3,2,10,09,80,054,35,11,40,310,29,17,11,200,,19,27,223,15*7C
$GPGSV,3,3,10,20,21,291,27,30,08,178,34*74
$GLGSV,3,1,10,68,16,053,18,69,59,015,33,70,37,267,23,77,01,005,*62
$GLGSV,3,2,10,78,17,055,14,79,12,105,32,83,05,167,10,84,59,202,19*66
$GLGSV,3,3,10,85,42,318,23,86,02,336,*6E
$GNGLL,4210.1720168,N,00841.2812827,W,092004.00,A,A*6F
$GNRMC,092005.00,A,4210.1720172,N,00841.2813337,W,0.048,,091122,,,A*72
$GNVTG,,T,,M,0.048,N,0.089,K,A*30
$GNGGA,092005.00,4210.1720172,N,00841.2813337,W,1,12,0.84,454.279,M,50.788,M,,*5F
$GNGSA,A,3,06,19,20,03,09,07,04,11,,,,,1.54,0.84,1.30*17
$GNGSA,A,3,68,69,70,78,79,84,85,,,,,,1.54,0.84,1.30*14
$GPGSV,3,1,10,03,13,090,11,04,40,050,36,06,75,281,20,07,31,149,43*71
$GPGSV,3,2,10,09,80,054,35,11,40,310,28,17,11,200,,19,27,223,15*7D
$GPGSV,3,3,10,20,21,291,28,30,08,178,34*7B
$GLGSV,3,1,10,68,16,053,18,69,59,015,34,70,37,267,24,77,01,005,*62
$GLGSV,3,2,10,78,17,055,10,79,12,105,32,83,05,167,10,84,59,202,19*62
$GLGSV,3,3,10,85,42,318,23,86,02,336,*6E
$GNGLL,4210.1720172,N,00841.2813337,W,092005.00,A,A*6E
$GNRMC,092006.00,A,4210.1720134,N,00841.2813951,W,0.062,,091122,,,A*71
$GNVTG,,T,,M,0.062,N,0.114,K,A*3D
$GNGGA,092006.00,4210.1720134,N,00841.2813951,W,1,12,0.83,454.047,M,50.788,M,,*5C
$GNGSA,A,3,06,19,20,03,09,07,04,11,,,,,1.50,0.83,1.25*10
$GNGSA,A,3,68,69,70,78,79,84,85,,,,,,1.50,0.83,1.25*13
$GPGSV,3,1,10,03,13,090,13,04,40,050,36,06,75,281,19,07,31,149,44*7E
$GPGSV,3,2,10,09,80,054,35,11,40,310,28,17,11,200,,19,27,223,17*7F
$GPGSV,3,3,10,20,21,291,29,30,08,178,34*7A
$GLGSV,3,1,10,68,16,053,18,69,59,015,34,70,37,267,24,77,01,005,*62
$GLGSV,3,2,10,78,17,055,13,79,12,105,32,83,05,167,13,84,59,202,19*62
$GLGSV,3,3,10,85,42,318,23,86,02,336,*6E
$GNGLL,4210.1720134,N,00841.2813951,W,092006.00,A,A*65
$GNRMC,092007.00,A,4210.1720190,N,00841.2814440,W,0.031,,091122,,,A*72
$GNVTG,,T,,M,0.031,N,0.058,K,A*32
$GNGGA,092007.00,4210.1720190,N,00841.2814440,W,1,12,0.84,453.734,M,50.788,M,,*5A
$GNGSA,A,3,06,19,20,03,09,07,04,11,,,,,1.46,0.84,1.20*15
$GNGSA,A,3,68,69,70,78,79,84,85,,,,,,1.46,0.84,1.20*16
$GPGSV,3,1,10,03,13,090,08,04,40,050,36,06,75,281,19,07,31,149,44*74
$GPGSV,3,2,10,09,80,054,35,11,40,310,28,17,11,200,,19,27,223,16*7E
$GPGSV,3,3,10,20,21,291,29,30,09,178,35*7A
$GLGSV,3,1,10,68,16,053,18,69,59,015,34,70,37,267,23,77,01,005,*65
$GLGSV,3,2,10,78,17,055,11,79,12,105,32,83,05,167,10,84,59,202,18*62
$GLGSV,3,3,10,85,42,318,24,86,02,336,*69
$GNGLL,4210.1720190,N,00841.2814440,W,092007.00,A,A*60
$GNRMC,092008.00,A,4210.1720224,N,00841.2814687,W,0.019,,091122,,,A*72
$GNVTG,,T,,M,0.019,N,0.036,K,A*30
$GNGGA,092008.00,4210.1720224,N,00841.2814687,W,1,12,0.84,453.478,M,50.788,M,,*5B
$GNGSA,A,3,06,19,20,09,07,04,11,,,,,,1.46,0.84,1.20*16
$GNGSA,A,3,68,69,70,78,79,84,85,,,,,,1.46,0.84,1.20*16
$GPGSV,3,1,10,03,13,090,07,04,40,050,36,06,75,281,21,07,31,149,44*70
$GPGSV,3,2,10,09,80,054,35,11,40,310,29,17,11,200,,19,27,223,15*7C
$GPGSV,3,3,10,20,21,291,29,30,09,178,35*7A
$GLGSV,3,1,10,68,16,053,18,69,59,015,34,70,37,267,24,77,01,005,*62
$GLGSV,3,2,10,78,17,055,11,79,12,105,31,83,05,167,10,84,59,202,18*61
$GLGSV,3,3,10,85,42,318,24,86,02,336,*69
$GNGLL,4210.1720224,N,00841.2814687,W,092008.00,A,A*6A
$GNRMC,092009.00,A,4210.1720289,N,00841.2814506,W,0.073,,091122,,,A*72
$GNVTG,,T,,M,0.073,N,0.136,K,A*3D
$GNGGA,092009.00,4210.1720289,N,00841.2814506,W,1,12,0.84,453.216,M,50.788,M,,*59
$GNGSA,A,3,06,19,20,03,09,07,04,11,,,,,1.46,0.84,1.20*15
$GNGSA,A,3,68,69,70,78,79,84,85,,,,,,1.46,0.84,1.20*16
$GPGSV,3,1,10,03,13,090,08,04,40,050,36,06,75,281,21,07,31,149,43*78
$GPGSV,3,2,10,09,80,054,36,11,40,310,29,17,11,200,,19,27,223,13*79
$GPGSV,3,3,10,20,21,291,29,30,09,178,35*7A
$GLGSV,3,1,10,68,16,053,18,69,59,015,34,70,37,267,24,77,01,005,*62
$GLGSV,3,2,10,78,17,055,16,79,12,105,31,83,05,167,11,84,59,202,18*67
$GLGSV,3,3,10,85,42,318,24,86,02,336,*69
$GNGLL,4210.1720289,N,00841.2814506,W,092009.00,A,A*66
$GNRMC,092010.00,A,4210.1720286,N,00841.2814522,W,0.017,,091122,,,A*71
$GNVTG,,T,,M,0.017,N,0.032,K,A*3A
$GNGGA,092010.00,4210.1720286,N,00841.2814522,W,1,12,0.84,453.002,M,50.788,M,,*5F
$GNGSA,A,3,06,19,20,03,09,07,04,11,,,,,1.46,0.84,1.20*15
$GNGSA,A,3,68,69,70,78,79,84,85,,,,,,1.46,0.84,1.20*16
$GPGSV,3,1,10,03,13,090,09,04,40,050,37,06,75,281,21,07,31,149,44*7F
$GPGSV,3,2,10,09,80,054,36,11,40,310,31,17,11,200,27,19,27,223,12*74
$GPGSV,3,3,10,20,21,291,30,30,09,178,35*72
$GLGSV,3,1,10,68,16,053,18,69,59,015,33,70,37,267,25,77,01,005,*64
$GLGSV,3,2,10,78,17,055,12,79,12,105,31,83,05,167,13,84,59,202,18*61
$GLGSV,3,3,10,85,42,318,24,86,02,336,*69
$GNGLL,4210.1720286,N,00841.2814522,W,092010.00,A,A*67
$GNRMC,092011.00,A,4210.1720297,N,00841.2814751,W,0.006,,091122,,,A*76
$GNVTG,,T,,M,0.006,N,0.011,K,A*3B
$GNGGA,092011.00,4210.1720297,N,00841.2814751,W,1,12,0.73,452.717,M,50.788,M,,*52
$GNGSA,A,3,06,17,19,20,03,09,07,04,11,,,,1.29,0.73,1.06*16
$GNGSA,A,3,68,69,70,78,79,84,85,,,,,,1.29,0.73,1.06*13
$GPGSV,3,1,10,03,13,090,08,04,40,050,37,06,75,281,19,07,31,149,44*75
$GPGSV,3,2,10,09,80,054,36,11,40,310,31,17,11,200,26,19,27,223,13*74
$GPGSV,3,3,10,20,21,291,30,30,09,178,35*72
$GLGSV,3,1,10,68,16,053,18,69,59,015,33,70,37,267,25,77,01,005,*64
$GLGSV,3,2,10,78,17,055,15,79,12,105,31,83,05,167,11,84,59,202,17*6B
$GLGSV,3,3,10,85,42,318,24,86,02,336,*69
$GNGLL,4210.1720297,N,00841.2814751,W,092011.00,A,A*60
$GNRMC,092012.00,A,4210.1720355,N,00841.2814770,W,0.021,,091122,,,A*7C
$GNVTG,,T,,M,0.021,N,0.038,K,A*35
$GNGGA,092012.00,4210.1720355,N,00841.2814770,W,1,12,0.73,452.530,M,50.788,M,,*5A
$GNGSA,A,3,06,17,19,20,03,09,07,04,11,,,,1.29,0.73,1.06*16
$GNGSA,A,3,68,69,70,78,79,84,85,,,,,,1.29,0.73,1.06*13
$GPGSV,3,1,10,03,13,090,08,04,40,050,37,06,75,281,18,07,31,149,44*74
$GPGSV,3,2,10,09,80,054,36,11,40,310,31,17,11,200,26,19,27,223,16*71
$GPGSV,3,3,10,20,21,291,31,30,09,178,35*73
$GLGSV,3,1,10,68,16,053,17,69,59,015,32,70,37,267,25,77,01,005,*6A
$GLGSV,3,2,10,78,17,055,15,79,12,105,31,83,05,167,12,84,59,202,16*69
$GLGSV,3,3,10,85,42,318,24,86,02,336,*69
$GNGLL,4210.1720355,N,00841.2814770,W,092012.00,A,A*6F
$GNRMC,092013.00,A,4210.1720411,N,00841.2814847,W,0.048,,091122,,,A*7E
$GNVTG,,T,,M,0.048,N,0.088,K,A*31
$GNGGA,092013.00,4210.1720411,N,00841.2814847,W,1,12,0.73,452.358,M,50.788,M,,*5F
$GNGSA,A,3,06,17,19,20,03,09,07,04,11,,,,1.29,0.73,1.06*16
$GNGSA,A,3,68,69,70,78,79,84,85,,,,,,1.29,0.73,1.06*13
$GPGSV,3,1,10,03,13,090,13,04,40,050,37,06,75,281,18,07,31,149,43*79
$GPGSV,3,2,10,09,80,054,36,11,40,310,30,17,11,200,26,19,27,223,16*70
$GPGSV,3,3,10,20,21,291,30,30,09,178,35*72
$GLGSV,3,1,10,68,16,053,17,69,59,015,32,70,37,267,25,77,01,005,*6A
$GLGSV,3,2,10,78,17,055,14,79,12,105,31,83,05,167,14,84,59,202,17*6F
$GLGSV,3,3,10,85,42,318,24,86,02,336,*69
$GNGLL,4210.1720411,N,00841.2814847,W,092013.00,A,A*62
$GNRMC,092014.00,A,4210.1720430,N,00841.2814828,W,0.032,,091122,,,A*7E
$GNVTG,,T,,M,0.032,N,0.059,K,A*30
$GNGGA,092014.00,4210.1720430,N,00841.2814828,W,1,12,0.73,452.221,M,50.788,M,,*5D
$GNGSA,A,3,06,17,19,20,03,09,07,04,11,,,,1.29,0.73,1.06*16
$GNGSA,A,3,68,69,70,78,79,84,85,,,,,,1.29,0.73,1.06*13
$GPGSV,3,1,10,03,13,090,08,04,40,050,37,06,75,281,18,07,31,149,43*73
$GPGSV,3,2,10,09,80,054,36,11,40,310,30,17,11,200,27,19,27,223,18*7F
$GPGSV,3,3,10,20,21,291,29,30,09,178,35*7A
$GLGSV,3,1,10,68,16,053,16,69,59,015,32,70,37,267,24,77,01,005,*6A
$GLGSV,3,2,10,78,17,055,15,79,12,105,31,83,05,167,11,84,59,202,16*6A
$GLGSV,3,3,10,85,42,318,25,86,02,336,*68
$GNGLL,4210.1720430,N,00841.2814828,W,092014.00,A,A*6F
$GNRMC,092015.00,A,4210.1720517,N,00841.2814842,W,0.015,,091122,,,A*72
$GNVTG,,T,,M,0.015,N,0.028,K,A*33
$GNGGA,092015.00,4210.1720517,N,00841.2814842,W,1,12,0.73,452.099,M,50.788,M,,*55
$GNGSA,A,3,06,17,19,20,03,09,07,04,11,,,,1.29,0.73,1.06*16
$GNGSA,A,3,68,69,70,78,79,84,85,,,,,,1.29,0.73,1.06*13
$GPGSV,3,1,10,03,13,090,11,04,40,050,37,06,75,281,18,07,31,149,43*7B
$GPGSV,3,2,10,09,80,054,36,11,40,310,30,17,11,200,27,19,27,223,17*70
$GPGSV,3,3,10,20,21,291,29,30,09,178,35*7A
$GLGSV,3,1,10,68,15,053,15,69,59,015,32,70,37,267,25,77,01,005,*6B
$GLGSV,3,2,10,78,17,055,18,79,12,105,31,83,05,167,11,84,59,202,17*66
$GLGSV,3,3,10,85,42,318,26,86,02,336,*6B
$GNGLL,4210.1720517,N,00841.2814842,W,092015.00,A,A*66
$GNRMC,092016.00,A,4210.1720480,N,00841.2815007,W,0.061,,091122,,,A*75
$GNVTG,,T,,M,0.061,N,0.113,K,A*39
$GNGGA,092016.00,4210.1720480,N,00841.2815007,W,1,12,0.73,451.970,M,50.788,M,,*5C
$GNGSA,A,3,06,17,19,20,03,09,07,04,11,,,,1.29,0.73,1.06*16
$GNGSA,A,3,68,69,70,78,79,84,85,,,,,,1.29,0.73,1.06*13
$GPGSV,3,1,10,03,13,090,11,04,40,050,37,06,75,281,19,07,31,149,43*7A
$GPGSV,3,2,10,09,80,054,36,11,40,310,31,17,11,200,27,19,27,223,18*7E
$GPGSV,3,3,10,20,21,291,28,30,09,178,35*7B
$GLGSV,3,1,10,68,15,053,13,69,59,016,33,70,37,267,26,77,01,005,*6C
$GLGSV,3,2,10,78,17,055,17,79,12,105,31,83,05,167,12,84,59,202,17*6A
$GLGSV,3,3,10,85,42,318,27,86,02,336,*6A
$GNGLL,4210.1720480,N,00841.2815007,W,092016.00,A,A*62
$GNRMC,092017.00,A,4210.1720549,N,00841.2814975,W,0.048,,091122,,,A*76
$GNVTG,,T,,M,0.048,N,0.089,K,A*30
$GNGGA,092017.00,4210.1720549,N,00841.2814975,W,1,12,0.73,451.780,M,50.788,M,,*55
$GNGSA,A,3,06,17,19,20,03,09,07,04,11,,,,1.29,0.73,1.06*16
$GNGSA,A,3,68,69,70,78,79,84,85,,,,,,1.29,0.73,1.06*13
$GPGSV,3,1,10,03,13,090,09,04,40,050,37,06,75,281,21,07,31,149,43*78
$GPGSV,3,2,10,09,80,054,36,11,40,310,31,17,11,200,26,19,27,223,17*70
$GPGSV,3,3,10,20,21,291,28,30,09,178,35*7B
$GLGSV,3,1,10,68,15,053,11,69,59,016,34,70,38,268,25,77,01,005,*6A
$GLGSV,3,2,10,78,17,055,16,79,12,105,31,83,05,167,07,84,59,202,16*6E
$GLGSV,3,3,10,85,42,318,26,86,02,336,*6B
$GNGLL,4210.1720549,N,00841.2814975,W,092017.00,A,A*6A
$GNRMC,092018.00,A,4210.1720716,N,00841.2815056,W,0.022,,091122,,,A*74
$GNVTG,,T,,M,0.022,N,0.042,K,A*3B
$GNGGA,092018.00,4210.1720716,N,00841.2815056,W,1,12,0.72,451.580,M,50.788,M,,*58
$GNGSA,A,3,06,17,19,20,03,09,07,04,11,,,,1.26,0.72,1.04*1A
$GNGSA,A,3,68,69,70,78,79,84,85,,,,,,1.26,0.72,1.04*1F
$GPGSV,3,1,10,03,13,090,12,04,40,050,36,06,75,281,21,07,31,149,43*73
$GPGSV,3,2,10,09,80,054,36,11,40,310,31,17,11,200,27,19,27,223,17*71
$GPGSV,3,3,10,20,21,291,28,30,09,178,35*7B
$GLGSV,3,1,10,68,15,053,12,69,59,016,34,70,38,268,25,77,01,005,*69
$GLGSV,3,2,10,78,17,055,09,79,12,105,31,83,05,167,12,84,59,202,17*65
$GLGSV,3,3,10,85,42,318,26,86,02,336,*6B
$GNGLL,4210.1720716,N,00841.2815056,W,092018.00,A,A*64
$GNRMC,092019.00,A,4210.1720702,N,00841.2815322,W,0.037,,091122,,,A*74
$GNVTG,,T,,M,0.037,N,0.068,K,A*37
$GNGGA,092019.00,4210.1720702,N,00841.2815322,W,1,12,0.73,451.410,M,50.788,M,,*55
$GNGSA,A,3,06,17,19,20,03,09,07,04,11,,,,1.29,0.73,1.06*16
$GNGSA,A,3,68,69,70,78,79,84,85,,,,,,1.29,0.73,1.06*13
$GPGSV,3,1,10,03,13,090,13,04,40,050,37,06,75,281,22,07,31,149,43*70
$GPGSV,3,2,10,09,80,054,37,11,40,310,31,17,11,200,27,19,27,223,17*70
$GPGSV,3,3,10,20,21,291,29,30,09,178,35*7A
$GLGSV,3,1,10,68,15,053,14,69,59,016,33,70,38,268,25,77,01,005,*68
$GLGSV,3,2,10,78,17,055,16,79,12,105,31,83,05,167,13,84,59,202,17*6A
$GLGSV,3,3,10,85,42,318,27,86,02,336,*6A
$GNGLL,4210.1720702,N,00841.2815322,W,092019.00,A,A*60
$GNRMC,092020.00,A,4210.1720629,N,00841.2815212,W,0.018,,091122,,,A*79
$GNVTG,,T,,M,0.018,N,0.034,K,A*33
$GNGGA,092020.00,4210.1720629,N,00841.2815212,W,1,12,0.73,451.308,M,50.788,M,,*5B
$GNGSA,A,3,06,17,19,20,03,09,07,04,11,,,,1.29,0.73,1.06*16
$GNGSA,A,3,68,69,70,78,79,84,85,,,,,,1.29,0.73,1.06*13
$GPGSV,3,1,10,03,13,090,07,04,40,050,37,06,75,281,22,07,31,149,42*74
$GPGSV,3,2,10,09,80,054,37,11,40,310,31,17,11,200,28,19,27,223,15*7D
$GPGSV,3,3,10,20,21,291,28,30,09,178,34*7A
$GLGSV,3,1,10,68,15,053,16,69,59,016,33,70,38,268,25,77,01,005,*6A
$GLGSV,3,2,10,78,17,055,16,79,12,105,31,83,05,167,11,84,59,202,16*69
$GLGSV,3,3,10,85,42,318,26,86,02,336,*6B
$GNGLL,4210.1720629,N,00841.2815212,W,092020.00,A,A*60
$GNRMC,092021.00,A,4210.1720594,N,00841.2815259,W,0.051,,091122,,,A*7F
$GNVTG,,T,,M,0.051,N,0.095,K,A*35
$GNGGA,092021.00,4210.1720594,N,00841.2815259,W,1,12,0.68,451.201,M,50.788,M,,*52
$GNGSA,A,3,06,17,19,20,03,09,07,04,11,,,,1.23,0.68,1.03*13
$GNGSA,A,3,68,69,70,78,79,84,85,,,,,,1.23,0.68,1.03*16
$GPGSV,3,1,10,03,13,090,12,04,40,050,37,06,75,281,22,07,31,149,42*70
$GPGSV,3,2,10,09,80,054,37,11,40,310,31,17,11,200,28,19,27,223,14*7C
$GPGSV,3,3,10,20,21,291,28,30,09,178,34*7A
$GLGSV,3,1,10,68,15,053,19,69,59,016,33,70,38,268,25,77,01,005,*65
$GLGSV,3,2,10,78,17,055,19,79,12,105,31,83,05,167,07,84,59,202,16*61
$GLGSV,3,3,10,85,42,318,26,86,02,336,*6B
$GNGLL,4210.1720594,N,00841.2815259,W,092021.00,A,A*6B
$GNRMC,092022.00,A,4210.1720745,N,00841.2815337,W,0.044,,091122,,,A*7F
$GNVTG,,T,,M,0.044,N,0.082,K,A*37
$GNGGA,092022.00,4210.1720745,N,00841.2815337,W,1,12,0.73,450.995,M,50.788,M,,*5B
$GNGSA,A,3,06,17,20,03,09,07,04,11,,,,,1.29,0.73,1.06*1E
$GNGSA,A,3,68,69,70,78,79,84,85,,,,,,1.29,0.73,1.06*13
$GPGSV,3,1,10,03,13,090,16,04,40,050,37,06,75,281,22,07,31,149,42*74
$GPGSV,3,2,10,09,80,054,37,11,40,310,31,17,11,200,29,19,27,223,10*79
$GPGSV,3,3,10,20,21,291,29,30,09,178,34*7B
$GLGSV,3,1,10,68,15,053,20,69,59,016,33,70,38,268,26,77,01,005,*6C
$GLGSV,3,2,10,78,17,055,17,79,12,105,31,83,05,167,12,84,59,202,16*6B
$GLGSV,3,3,10,85,42,318,25,86,02,336,*68
$GNGLL,4210.1720745,N,00841.2815337,W,092022.00,A,A*6F
$GNRMC,092023.00,A,4210.1720711,N,00841.2815648,W,0.042,,091122,,,A*74
$GNVTG,,T,,M,0.042,N,0.078,K,A*34
$GNGGA,092023.00,4210.1720711,N,00841.2815648,W,1,12,0.70,450.904,M,50.788,M,,*5D
$GNGSA,A,3,06,17,19,20,03,09,07,04,11,,,,1.26,0.70,1.05*19
$GNGSA,A,3,68,69,70,78,79,84,85,,,,,,1.26,0.70,1.05*1C
$GPGSV,3,1,10,03,13,090,11,04,40,050,37,06,75,281,22,07,31,149,42*73
$GPGSV,3,2,10,09,80,054,36,11,40,310,31,17,11,200,29,19,27,223,08*71
$GPGSV,3,3,10,20,21,291,29,30,09,178,34*7B
$GLGSV,3,1,10,68,15,053,21,69,59,016,32,70,38,268,26,77,01,005,*6C
$GLGSV,3,2,10,78,17,055,19,79,12,105,32,83,05,167,09,84,59,202,16*6C
$GLGSV,3,3,10,85,42,318,25,86,02,336,*68
$GNGLL,4210.1720711,N,00841.2815648,W,092023.00,A,A*62
$GNRMC,092024.00,A,4210.1720722,N,00841.2815920,W,0.017,,091122,,,A*72
$GNVTG,,T,,M,0.017,N,0.032,K,A*3A
$GNGGA,092024.00,4210.1720722,N,00841.2815920,W,1,12,0.70,450.771,M,50.788,M,,*57
$GNGSA,A,3,06,17,19,20,09,07,04,11,,,,,1.26,0.70,1.05*1A
$GNGSA,A,3,68,69,70,78,79,84,85,,,,,,1.26,0.70,1.05*1C
$GPGSV,3,1,10,03,13,090,05,04,40,050,37,06,75,281,22,07,31,149,42*76
$GPGSV,3,2,10,09,80,054,37,11,40,310,31,17,11,200,28,19,27,223,12*7A
$GPGSV,3,3,10,20,21,291,28,30,09,178,34*7A
$GLGSV,3,1,10,68,15,053,21,69,59,016,32,70,38,268,26,77,00,005,*6D
$GLGSV,3,2,10,78,17,055,21,79,12,105,32,83,05,167,11,84,59,202,15*6D
$GLGSV,3,3,10,85,42,318,25,86,02,336,*68
$GNGLL,4210.1720722,N,00841.2815920,W,092024.00,A,A*64
$GNRMC,092025.00,A,4210.1720682,N,00841.2816138,W,0.052,,091122,,,A*7B
$GNVTG,,T,,M,0.052,N,0.097,K,A*34
$GNGGA,092025.00,4210.1720682,N,00841.2816138,W,1,12,0.70,450.706,M,50.788,M,,*5F
$GNGSA,A,3,06,17,19,20,09,07,04,11,,,,,1.26,0.70,1.05*1A
$GNGSA,A,3,68,69,70,78,79,84,85,,,,,,1.26,0.70,1.05*1C
$GPGSV,3,1,10,03,13,090,09,04,40,050,37,06,75,281,23,07,31,149,42*7B
$GPGSV,3,2,10,09,80,054,36,11,40,310,31,17,11,200,28,19,27,223,14*7D
$GPGSV,3,3,10,20,21,291,28,30,09,178,34*7A
$GLGSV,3,1,10,68,15,053,21,69,59,016,31,70,38,268,26,77,00,005,*6E
$GLGSV,3,2,10,78,17,055,20,79,12,105,32,83,05,167,10,84,59,202,15*6D
$GLGSV,3,3,10,85,42,318,26,86,02,336,*6B
$GNGLL,4210.1720682,N,00841.2816138,W,092025.00,A,A*6C
$GNRMC,092026.00,A,4210.1720632,N,00841.2816245,W,0.049,,091122,,,A*70
$GNVTG,,T,,M,0.049,N,0.091,K,A*38
$GNGGA,092026.00,4210.1720632,N,00841.2816245,W,1,12,0.68,450.634,M,50.788,M,,*57
$GNGSA,A,3,06,17,19,20,03,09,07,04,11,,,,1.23,0.68,1.03*13
$GNGSA,A,3,68,69,70,78,79,84,85,,,,,,1.23,0.68,1.03*16
$GPGSV,3,1,10,03,13,090,15,04,40,050,37,06,75,281,23,07,31,149,42*76
$GPGSV,3,2,10,09,80,054,37,11,40,310,32,17,11,200,28,19,27,223,16*7D
$GPGSV,3,3,10,20,21,291,28,30,09,178,34*7A
$GLGSV,3,1,10,68,15,053,20,69,59,016,31,70,38,268,25,77,00,005,*6C
$GLGSV,3,2,10,78,17,055,20,79,12,105,32,83,05,167,12,84,59,202,14*6E
$GLGSV,3,3,10,85,42,318,26,86,02,336,*6B
$GNGLL,4210.1720632,N,00841.2816245,W,092026.00,A,A*6D
$GNRMC,092027.00,A,4210.1720736,N,00841.2816097,W,0.065,,091122,,,A*77
$GNVTG,,T,,M,0.065,N,0.120,K,A*3D
$GNGGA,092027.00,4210.1720736,N,00841.2816097,W,1,12,0.68,450.496,M,50.788,M,,*54
$GNGSA,A,3,06,17,19,20,03,09,07,04,11,,,,1.23,0.68,1.03*13
$GNGSA,A,3,68,69,70,78,79,84,85,,,,,,1.23,0.68,1.03*16
$GPGSV,3,1,10,03,13,090,16,04,40,050,37,06,75,281,25,07,31,149,42*73
$GPGSV,3,2,10,09,80,054,37,11,40,310,32,17,11,200,28,19,27,223,17*7C
$GPGSV,3,3,10,20,21,291,28,30,09,178,34*7A
$GLGSV,3,1,10,68,15,053,19,69,59,016,31,70,38,268,25,77,00,005,*66
$GLGSV,3,2,10,78,17,055,21,79,12,105,32,83,05,167,09,84,59,202,15*64
$GLGSV,3,3,10,85,42,318,26,86,02,336,*6B
$GNGLL,4210.1720736,N,00841.2816097,W,092027.00,A,A*64
$GNRMC,092028.00,A,4210.1720568,N,00841.2816262,W,0.103,,091122,,,A*78
$GNVTG,,T,,M,0.103,N,0.190,K,A*37
$GNGGA,092028.00,4210.1720568,N,00841.2816262,W,1,12,0.68,450.448,M,50.788,M,,*59
$GNGSA,A,3,06,17,19,20,03,09,07,04,11,,,,1.23,0.68,1.03*13
$GNGSA,A,3,68,69,70,78,79,84,85,,,,,,1.23,0.68,1.03*16
$GPGSV,3,1,10,03,13,090,17,04,40,050,37,06,75,281,25,07,31,149,42*72
$GPGSV,3,2,10,09,80,054,37,11,40,310,31,17,11,200,27,19,27,223,17*70
$GPGSV,3,3,10,20,21,291,28,30,09,178,34*7A
$GLGSV,3,1,10,68,15,053,18,69,59,016,30,70,38,268,25,77,00,005,*66
$GLGSV,3,2,10,78,17,055,21,79,12,105,32,83,05,167,13,84,59,202,17*6D
$GLGSV,3,3,10,85,42,318,26,86,02,336,*6B
$GNGLL,4210.1720568,N,00841.2816262,W,092028.00,A,A*6A
$GNRMC,092029.00,A,4210.1720541,N,00841.2816285,W,0.015,,091122,,,A*7D
$GNVTG,,T,,M,0.015,N,0.027,K,A*3C
$GNGGA,092029.00,4210.1720541,N,00841.2816285,W,1,12,0.68,450.335,M,50.788,M,,*57
$GNGSA,A,3,06,17,19,20,03,09,07,04,11,,,,1.23,0.68,1.03*13
$GNGSA,A,3,68,69,70,78,79,84,85,,,,,,1.23,0.68,1.03*16
$GPGSV,3,1,10,03,13,090,16,04,40,050,36,06,75,281,26,07,31,149,42*71
$GPGSV,3,2,10,09,80,054,37,11,40,310,32,17,11,200,27,19,27,223,17*73
$GPGSV,3,3,10,20,21,291,28,30,09,178,34*7A
$GLGSV,3,1,10,68,15,053,18,69,59,016,31,70,38,268,25,77,00,005,*67
$GLGSV,3,2,10,78,17,055,21,79,12,105,32,83,05,167,07,84,59,202,18*67
$GLGSV,3,3,10,85,42,318,26,86,02,336,*6B
$GNGLL,4210.1720541,N,00841.2816285,W,092029.00,A,A*69
$GNRMC,092030.00,A,4210.1720478,N,00841.2816219,W,0.037,,091122,,,A*7B
$GNVTG,,T,,M,0.037,N,0.068,K,A*37
$GNGGA,092030.00,4210.1720478,N,00841.2816219,W,1,12,0.68,450.264,M,50.788,M,,*54
$GNGSA,A,3,06,17,19,20,03,09,07,04,11,,,,1.23,0.68,1.03*13
$GNGSA,A,3,68,69,70,78,79,84,85,,,,,,1.23,0.68,1.03*16
$GPGSV,3,1,10,03,13,090,16,04,40,050,37,06,75,281,27,07,31,149,41*72
$GPGSV,3,2,10,09,80,054,37,11,40,310,31,17,11,200,27,19,27,223,16*71
$GPGSV,3,3,10,20,21,291,28,30,09,178,34*7A
$GLGSV,3,1,10,68,15,053,18,69,59,016,31,70,38,268,25,77,00,005,*67
$GLGSV,3,2,10,78,17,055,21,79,12,105,32,83,04,167,14,84,59,202,18*64
$GLGSV,3,3,10,85,42,318,26,86,02,336,*6B
$GNGLL,4210.1720478,N,00841.2816219,W,092030.00,A,A*6F
$GNRMC,092031.00,A,4210.1720433,N,00841.2816259,W,0.009,,091122,,,A*7C
$GNVTG,,T,,M,0.009,N,0.016,K,A*33
$GNGGA,092031.00,4210.1720433,N,00841.2816259,W,1,12,0.68,450.169,M,50.788,M,,*50
$GNGSA,A,3,06,17,19,20,03,09,07,04,11,,,,1.23,0.68,1.03*13
$GNGSA,A,3,68,69,70,78,79,84,85,,,,,,1.23,0.68,1.03*16
$GPGSV,3,1,10,03,13,090,15,04,40,050,36,06,75,281,27,07,31,149,41*70
$GPGSV,3,2,10,09,80,054,37,11,40,310,31,17,11,200,27,19,27,223,13*74
$GPGSV,3,3,10,20,21,291,28,30,09,178,33*7D
$GLGSV,3,1,10,68,15,053,19,69,59,016,31,70,38,268,25,77,00,005,*66
$GLGSV,3,2,10,78,17,055,21,79,12,105,32,83,04,167,07,84,59,201,17*6A
$GLGSV,3,3,10,85,42,318,26,86,02,336,*6B
$GNGLL,4210.1720433,N,00841.2816259,W,092031.00,A,A*65
$GNRMC,092032.00,A,4210.1720268,N,00841.2816370,W,0.032,,091122,,,A*75
$GNVTG,,T,,M,0.032,N,0.060,K,A*3A
$GNGGA,092032.00,4210.1720268,N,00841.2816370,W,1,12,0.72,450.136,M,50.788,M,,*50
$GNGSA,A,3,06,17,19,20,03,09,07,04,11,,,,1.26,0.72,1.04*1A
$GNGSA,A,3,68,69,70,78,79,84,85,,,,,,1.26,0.72,1.04*1F
$GPGSV,3,1,10,03,13,090,15,04,40,050,37,06,75,281,27,07,31,149,41*71
$GPGSV,3,2,10,09,80,054,37,11,40,310,32,17,11,200,27,19,27,223,11*75
$GPGSV,3,3,10,20,21,291,28,30,09,178,33*7D
$GLGSV,3,1,10,68,15,053,19,69,59,016,30,70,38,268,25,77,00,005,*67
$GLGSV,3,2,10,78,17,055,21,79,12,105,31,83,04,167,09,84,59,201,18*68
$GLGSV,3,3,10,85,43,318,25,86,02,336,*69
$GNGLL,4210.1720268,N,00841.2816370,W,092032.00,A,A*64
$GNRMC,092033.00,A,4210.1720034,N,00841.2816503,W,0.047,,091122,,,A*7F
$GNVTG,,T,,M,0.047,N,0.088,K,A*3E
$GNGGA,092033.00,4210.1720034,N,00841.2816503,W,1,12,0.72,450.060,M,50.788,M,,*5A
$GNGSA,A,3,06,17,19,20,03,09,07,04,11,,,,1.26,0.72,1.04*1A
$GNGSA,A,3,68,69,70,78,79,84,85,,,,,,1.26,0.72,1.04*1F
$GPGSV,3,1,10,03,13,090,15,04,40,050,37,06,75,281,28,07,31,149,41*7E
$GPGSV,3,2,10,09,80,054,37,11,40,310,32,17,11,200,27,19,27,223,12*76
$GPGSV,3,3,10,20,21,291,28,30,09,178,33*7D
$GLGSV,3,1,10,68,15,053,20,69,59,016,30,70,38,268,25,77,00,005,*6D
$GLGSV,3,2,10,78,17,055,22,79,12,105,31,83,04,167,11,84,59,201,18*62
$GLGSV,3,3,10,85,43,318,25,86,02,335,*6A
$GNGLL,4210.1720034,N,00841.2816503,W,092033.00,A,A*6C
$GNRMC,092034.00,A,4210.1719790,N,00841.2816746,W,0.040,,091122,,,A*7F
$GNVTG,,T,,M,0.040,N,0.075,K,A*3B
$GNGGA,092034.00,4210.1719790,N,00841.2816746,W,1,12,0.68,449.970,M,50.788,M,,*56
$GNGSA,A,3,06,17,19,20,03,09,07,04,11,,,,1.23,0.68,1.03*13
$GNGSA,A,3,68,69,70,78,79,84,85,,,,,,1.23,0.68,1.03*16
$GPGSV,3,1,10,03,13,090,16,04,40,050,36,06,75,281,28,07,31,149,41*7C
$GPGSV,3,2,10,09,80,054,37,11,40,310,31,17,11,200,28,19,27,223,15*7D
$GPGSV,3,3,10,20,21,291,27,30,09,178,33*72
$GLGSV,3,1,10,68,15,053,20,69,59,016,29,70,38,268,26,77,00,005,*66
$GLGSV,3,2,10,78,17,055,22,79,12,105,31,83,04,167,10,84,59,201,18*63
$GLGSV,3,3,10,85,43,318,25,86,02,335,*6A
$GNGLL,4210.1719790,N,00841.2816746,W,092034.00,A,A*6B
$GNRMC,092035.00,A,4210.1719729,N,00841.2816827,W,0.035,,091122,,,A*76
$GNVTG,,T,,M,0.035,N,0.064,K,A*39
$GNGGA,092035.00,4210.1719729,N,00841.2816827,W,1,12,0.68,449.752,M,50.788,M,,*53
$GNGSA,A,3,06,17,19,20,03,09,07,04,11,,,,1.23,0.68,1.03*13
$GNGSA,A,3,68,69,70,78,79,84,85,,,,,,1.23,0.68,1.03*16
$GPGSV,3,1,10,03,13,090,16,04,40,050,37,06,75,281,29,07,31,149,41*7C
$GPGSV,3,2,10,09,80,054,38,11,40,310,31,17,11,200,27,19,27,223,18*70
$GPGSV,3,3,10,20,21,291,27,30,09,178,33*72
$GLGSV,3,1,10,68,15,053,20,69,59,016,28,70,38,268,26,77,00,005,*67
$GLGSV,3,2,10,78,17,055,22,79,12,105,31,83,04,167,09,84,59,201,18*6B
$GLGSV,3,3,10,85,43,318,25,86,02,335,*6A
$GNGLL,4210.1719729,N,00841.2816827,W,092035.00,A,A*60
$GNRMC,092036.00,A,4210.1719754,N,00841.2816644,W,0.043,,091122,,,A*75
$GNVTG,,T,,M,0.043,N,0.079,K,A*34
$GNGGA,092036.00,4210.1719754,N,00841.2816644,W,1,12,0.68,449.575,M,50.788,M,,*56
$GNGSA,A,3,06,17,19,20,03,09,07,04,11,,,,1.23,0.68,1.03*13
$GNGSA,A,3,68,69,70,78,79,84,85,,,,,,1.23,0.68,1.03*16
$GPGSV,3,1,10,03,13,090,17,04,40,050,37,06,75,281,29,07,31,149,40*7C
$GPGSV,3,2,10,09,80,054,38,11,40,310,31,17,11,200,26,19,27,223,18*71
$GPGSV,3,3,10,20,21,291,27,30,09,178,33*72
$GLGSV,3,1,10,68,15,053,21,69,59,016,27,70,38,268,26,77,00,005,*69
$GLGSV,3,2,10,78,17,055,22,79,12,105,31,83,04,167,11,84,59,201,18*62
$GLGSV,3,3,10,85,43,318,25,86,02,335,*6A
$GNGLL,4210.1719754,N,00841.2816644,W,092036.00,A,A*62
$GNRMC,092037.00,A,4210.1719770,N,00841.2816784,W,0.020,,091122,,,A*7A
$GNVTG,,T,,M,0.020,N,0.037,K,A*3B
$GNGGA,092037.00,4210.1719770,N,00841.2816784,W,1,12,0.72,449.351,M,50.788,M,,*57
$GNGSA,A,3,06,17,19,20,03,09,07,04,11,,,,1.26,0.72,1.04*1A
$GNGSA,A,3,68,69,70,78,79,84,85,,,,,,1.26,0.72,1.04*1F
$GPGSV,3,1,10,03,13,090,18,04,40,050,36,06,75,281,30,07,31,149,40*7A
$GPGSV,3,2,10,09,80,054,38,11,40,310,31,17,11,200,27,19,27,223,17*7F
$GPGSV,3,3,10,20,21,291,27,30,09,178,33*72
$GLGSV,3,1,10,68,15,053,21,69,59,016,27,70,38,268,26,77,00,005,*69
$GLGSV,3,2,10,78,17,055,22,79,12,105,31,83,04,167,13,84,59,201,18*60
$GLGSV,3,3,10,85,43,318,26,86,02,335,*69
$GNGLL,4210.1719770,N,00841.2816784,W,092037.00,A,A*68
$GNRMC,092038.00,A,4210.1719577,N,00841.2816728,W,0.024,,091122,,,A*72
$GNVTG,,T,,M,0.024,N,0.045,K,A*3A
$GNGGA,092038.00,4210.1719577,N,00841.2816728,W,1,12,0.74,449.198,M,50.788,M,,*5A
$GNGSA,A,3,06,17,19,20,03,09,07,04,11,,,,1.28,0.74,1.04*12
$GNGSA,A,3,68,69,70,78,79,84,85,,,,,,1.28,0.74,1.04*17
$GPGSV,3,1,10,03,12,090,18,04,40,050,36,06,75,281,30,07,31,149,40*7B
$GPGSV,3,2,10,09,80,054,38,11,40,310,31,17,11,200,27,19,27,223,17*7F
$GPGSV,3,3,10,20,21,291,27,30,09,178,33*72
$GLGSV,3,1,10,68,15,053,21,69,59,016,26,70,38,268,26,77,00,005,*68
$GLGSV,3,2,10,78,17,055,21,79,12,105,31,83,04,167,08,84,59,201,18*69
$GLGSV,3,3,10,85,43,318,26,86,02,335,*69
$GNGLL,4210.1719577,N,00841.2816728,W,092038.00,A,A*64
$GNRMC,092039.00,A,4210.1719560,N,00841.2816643,W,0.024,,091122,,,A*79
$GNVTG,,T,,M,0.024,N,0.044,K,A*3B
$GNGGA,092039.00,4210.1719560,N,00841.2816643,W,1,12,0.68,449.011,M,50.788,M,,*5C
$GNGSA,A,3,06,17,19,20,03,09,07,04,11,,,,1.23,0.68,1.03*13
$GNGSA,A,3,68,69,70,78,79,84,85,,,,,,1.23,0.68,1.03*16
$GPGSV,3,1,10,03,12,090,17,04,40,050,36,06,75,281,30,07,31,149,40*74
$GPGSV,3,2,10,09,80,054,38,11,40,310,31,17,11,200,26,19,27,223,19*70
$GPGSV,3,3,10,20,21,291,27,30,09,178,32*73
$GLGSV,3,1,10,68,15,053,22,69,59,016,25,70,38,268,27,77,00,005,*69
$GLGSV,3,2,10,78,17,055,21,79,12,105,31,83,04,167,10,84,59,201,18*60
$GLGSV,3,3,10,85,43,318,27,86,02,335,*68
$GNGLL,4210.1719560,N,00841.2816643,W,092039.00,A,A*6F
$GNRMC,092040.00,A,4210.1719681,N,00841.2816572,W,0.060,,091122,,,A*7A
$GNVTG,,T,,M,0.060,N,0.111,K,A*3A
$GNGGA,092040.00,4210.1719681,N,00841.2816572,W,1,12,0.68,448.804,M,50.788,M,,*52
$GNGSA,A,3,06,17,19,20,03,09,07,04,11,,,,1.23,0.68,1.03*13
$GNGSA,A,3,68,69,70,78,79,84,85,,,,,,1.23,0.68,1.03*16
$GPGSV,3,1,10,03,12,090,17,04,40,050,36,06,75,281,30,07,31,149,39*7A
$GPGSV,3,2,10,09,80,054,38,11,40,310,31,17,11,200,26,19,27,223,20*7A
$GPGSV,3,3,10,20,21,291,26,30,09,178,33*73
$GLGSV,3,1,10,68,15,053,21,69,59,016,25,70,38,268,27,77,00,005,*6A
$GLGSV,3,2,10,78,17,055,21,79,12,105,31,83,04,167,10,84,59,201,18*60
$GLGSV,3,3,10,85,43,318,28,86,02,335,*67
$GNGLL,4210.1719681,N,00841.2816572,W,092040.00,A,A*6C
$GNRMC,092041.00,A,4210.1719679,N,00841.2816601,W,0.030,,091122,,,A*7E
$GNVTG,,T,,M,0.030,N,0.056,K,A*3D
$GNGGA,092041.00,4210.1719679,N,00841.2816601,W,1,12,0.68,448.671,M,50.788,M,,*5F
$GNGSA,A,3,06,17,19,20,03,09,07,04,11,,,,1.23,0.68,1.03*13
$GNGSA,A,3,68,69,70,78,79,84,85,,,,,,1.23,0.68,1.03*16
$GPGSV,3,1,10,03,12,090,17,04,40,050,37,06,75,279,31,07,31,149,39*7D
$GPGSV,3,2,10,09,80,054,38,11,40,310,31,17,11,200,26,19,27,223,20*7A
$GPGSV,3,3,10,20,21,291,26,30,09,178,32*72
$GLGSV,3,1,10,68,15,053,20,69,59,016,24,70,38,268,26,77,00,005,*6B
$GLGSV,3,2,10,78,17,055,20,79,12,105,31,83,04,167,09,84,59,201,17*66
$GLGSV,3,3,10,85,43,318,28,86,02,335,*67
$GNGLL,4210.1719679,N,00841.2816601,W,092041.00,A,A*6D
$GNRMC,092042.00,A,4210.1719593,N,00841.2816900,W,0.050,,091122,,,A*72
$GNVTG,,T,,M,0.050,N,0.093,K,A*32
$GNGGA,092042.00,4210.1719593,N,00841.2816900,W,1,12,0.68,448.431,M,50.788,M,,*53
$GNGSA,A,3,06,17,19,20,03,09,07,04,11,,,,1.23,0.68,1.03*13
$GNGSA,A,3,68,69,70,78,79,84,85,,,,,,1.23,0.68,1.03*16
$GPGSV,3,1,10,03,12,090,17,04,40,050,37,06,75,279,31,07,32,149,39*7E
$GPGSV,3,2,10,09,80,054,38,11,40,310,31,17,11,200,27,19,27,223,19*71
$GPGSV,3,3,10,20,21,291,26,30,09,178,32*72
$GLGSV,3,1,10,68,15,053,19,69,59,016,24,70,38,268,26,77,00,005,*61
$GLGSV,3,2,10,78,17,055,19,79,12,105,31,83,04,167,11,84,59,201,17*65
$GLGSV,3,3,10,85,43,318,29,86,02,335,*66
$GNGLL,4210.1719593,N,00841.2816900,W,092042.00,A,A*67
$GNRMC,092043.00,A,4210.1719755,N,00841.2816839,W,0.072,,091122,,,A*70
$GNVTG,,T,,M,0.072,N,0.134,K,A*3E
$GNGGA,092043.00,4210.1719755,N,00841.2816839,W,1,12,0.68,448.176,M,50.788,M,,*57
$GNGSA,A,3,06,17,19,20,03,09,07,04,11,,,,1.23,0.68,1.03*13
$GNGSA,A,3,68,69,70,78,79,84,85,,,,,,1.23,0.68,1.03*16
$GPGSV,3,1,10,03,12,090,18,04,40,050,37,06,75,279,32,07,32,149,38*73
$GPGSV,3,2,10,09,80,054,38,11,40,310,30,17,11,200,26,19,27,223,19*71
$GPGSV,3,3,10,20,21,291,26,30,09,178,32*72
$GLGSV,3,1,10,68,15,053,19,69,59,016,23,70,38,268,26,77,00,005,*66
$GLGSV,3,2,10,78,17,055,18,79,12,105,31,83,04,167,12,84,59,201,17*67
$GLGSV,3,3,10,85,43,318,29,86,02,335,*66
$GNGLL,4210.1719755,N,00841.2816839,W,092043.00,A,A*65
$GNRMC,092044.00,A,4210.1719757,N,00841.2816596,W,0.012,,091122,,,A*7B
$GNVTG,,T,,M,0.012,N,0.022,K,A*3E
$GNGGA,092044.00,4210.1719757,N,00841.2816596,W,1,12,0.68,447.976,M,50.788,M,,*5D
$GNGSA,A,3,06,17,19,20,03,09,07,04,11,,,,1.23,0.68,1.03*13
$GNGSA,A,3,68,69,70,78,79,84,85,,,,,,1.23,0.68,1.03*16
$GPGSV,3,1,10,03,12,090,18,04,40,050,36,06,75,279,32,07,32,149,38*72
$GPGSV,3,2,10,09,79,053,38,11,40,310,30,17,11,200,26,19,27,223,17*7E
$GPGSV,3,3,10,20,21,291,26,30,09,178,32*72
$GLGSV,3,1,10,68,15,053,19,69,59,016,23,70,38,268,26,77,00,005,*66
$GLGSV,3,2,10,78,17,055,18,79,12,105,30,83,04,167,11,84,59,201,18*6A
$GLGSV,3,3,10,85,43,318,30,86,02,335,*6E
$GNGLL,4210.1719757,N,00841.2816596,W,092044.00,A,A*68
$GNRMC,092045.00,A,4210.1719563,N,00841.2816470,W,0.075,,091122,,,A*77
$GNVTG,,T,,M,0.075,N,0.139,K,A*34
$GNGGA,092045.00,4210.1719563,N,00841.2816470,W,1,12,0.68,447.783,M,50.788,M,,*54
$GNGSA,A,3,06,17,19,20,03,09,07,04,11,,,,1.23,0.68,1.03*13
$GNGSA,A,3,68,69,70,78,79,84,85,,,,,,1.23,0.68,1.03*16
$GPGSV,3,1,10,03,12,090,18,04,40,050,36,06,75,279,33,07,32,149,38*73
$GPGSV,3,2,10,09,79,053,38,11,40,310,30,17,11,200,26,19,27,223,18*71
$GPGSV,3,3,10,20,21,291,26,30,09,178,32*72
$GLGSV,3,1,10,68,15,053,20,69,59,016,22,70,38,268,26,77,00,005,*6D
$GLGSV,3,2,10,78,17,055,16,79,12,105,30,83,04,167,12,84,59,201,19*66
$GLGSV,3,3,10,85,43,318,31,86,02,335,*6F
$GNGLL,4210.1719563,N,00841.2816470,W,092045.00,A,A*65
$GNRMC,092046.00,A,4210.1719394,N,00841.2816005,W,0.036,,091122,,,A*7B
$GNVTG,,T,,M,0.036,N,0.068,K,A*36
$GNGGA,092046.00,4210.1719394,N,00841.2816005,W,1,12,0.68,447.591,M,50.788,M,,*5E
$GNGSA,A,3,06,17,19,20,03,09,07,04,11,,,,1.23,0.68,1.03*13
$GNGSA,A,3,68,69,70,78,79,84,85,,,,,,1.23,0.68,1.03*16
$GPGSV,3,1,10,03,12,090,18,04,40,050,36,06,75,279,32,07,32,149,38*72
$GPGSV,3,2,10,09,79,053,38,11,40,310,30,17,11,200,27,19,27,223,19*71
$GPGSV,3,3,10,20,21,291,26,30,09,178,32*72
$GLGSV,3,1,10,68,15,053,19,69,59,016,23,70,38,268,26,77,00,005,*66
$GLGSV,3,2,10,78,17,055,14,79,12,105,31,83,04,167,10,84,59,201,18*66
$GLGSV,3,3,10,85,43,318,31,86,02,335,*6F
$GNGLL,4210.1719394,N,00841.2816005,W,092046.00,A,A*6E
$GNRMC,092047.00,A,4210.1719241,N,00841.2815545,W,0.005,,091122,,,A*71
$GNVTG,,T,,M,0.005,N,0.009,K,A*31
$GNGGA,092047.00,4210.1719241,N,00841.2815545,W,1,12,0.68,447.427,M,50.788,M,,*58
$GNGSA,A,3,06,17,19,20,03,09,07,04,11,,,,1.23,0.68,1.03*13
$GNGSA,A,3,68,69,70,78,79,84,85,,,,,,1.23,0.68,1.03*16
$GPGSV,3,1,10,03,12,090,18,04,40,050,36,06,75,279,33,07,32,149,38*73
$GPGSV,3,2,10,09,79,053,38,11,40,310,30,17,11,200,27,19,27,223,20*7B
$GPGSV,3,3,10,20,21,291,27,30,09,178,32*73
$GLGSV,3,1,10,68,15,053,18,69,59,016,24,70,38,268,26,77,00,005,*60
$GLGSV,3,2,10,78,17,055,11,79,12,105,31,83,04,167,10,84,59,201,19*62
$GLGSV,3,3,10,85,43,318,31,86,02,335,*6F
$GNGLL,4210.1719241,N,00841.2815545,W,092047.00,A,A*64
$GNRMC,092048.00,A,4210.1719142,N,00841.2815319,W,0.019,,091122,,,A*7C
$GNVTG,,T,,M,0.019,N,0.035,K,A*33
$GNGGA,092048.00,4210.1719142,N,00841.2815319,W,1,12,0.68,447.228,M,50.788,M,,*51
$GNGSA,A,3,06,17,19,20,03,09,07,04,11,,,,1.23,0.68,1.03*13
$GNGSA,A,3,68,69,70,78,79,84,85,,,,,,1.23,0.68,1.03*16
$GPGSV,3,1,10,03,12,090,18,04,40,050,36,06,75,279,32,07,32,149,38*72
$GPGSV,3,2,10,09,79,053,37,11,40,310,30,17,11,200,28,19,27,223,21*7A
$GPGSV,3,3,10,20,21,291,26,30,09,178,32*72
$GLGSV,3,1,10,68,15,053,18,69,59,016,24,70,38,268,26,77,00,005,*60
$GLGSV,3,2,10,78,17,055,11,79,12,105,31,83,04,167,08,84,59,201,19*6B
$GLGSV,3,3,10,85,43,318,31,86,02,335,*6F
$GNGLL,4210.1719142,N,00841.2815319,W,092048.00,A,A*64
$GNRMC,092049.00,A,4210.1719170,N,00841.2814864,W,0.036,,091122,,,A*71
$GNVTG,,T,,M,0.036,N,0.067,K,A*39
$GNGGA,092049.00,4210.1719170,N,00841.2814864,W,1,12,0.68,446.967,M,50.788,M,,*50
$GNGSA,A,3,06,17,19,20,03,09,07,04,11,,,,1.23,0.68,1.03*13
$GNGSA,A,3,68,69,70,78,79,84,85,,,,,,1.23,0.68,1.03*16
$GPGSV,3,1,10,03,12,090,19,04,40,050,36,06,75,279,33,07,32,149,38*72
$GPGSV,3,2,10,09,79,053,38,11,40,310,30,17,11,200,28,19,27,223,22*76
$GPGSV,3,3,10,20,21,291,26,30,09,178,32*72
$GLGSV,3,1,10,68,15,053,17,69,59,016,24,70,38,268,26,77,00,005,*6F
$GLGSV,3,2,10,78,17,055,13,79,12,105,31,83,04,167,07,84,59,201,19*66
$GLGSV,3,3,10,85,43,318,32,86,02,335,*6C
$GNGLL,4210.1719170,N,00841.2814864,W,092049.00,A,A*64
$GNRMC,092050.00,A,4210.1719139,N,00841.2814579,W,0.040,,091122,,,A*74
$GNVTG,,T,,M,0.040,N,0.075,K,A*3B
$GNGGA,092050.00,4210.1719139,N,00841.2814579,W,1,12,0.68,446.839,M,50.788,M,,*5E
$GNGSA,A,3,06,17,19,20,03,09,07,04,11,,,,1.23,0.68,1.03*13
$GNGSA,A,3,68,69,70,78,79,84,85,,,,,,1.23,0.68,1.03*16
$GPGSV,3,1,10,03,12,090,19,04,40,050,36,06,75,279,33,07,32,149,37*7D
$GPGSV,3,2,10,09,79,053,38,11,40,310,30,17,11,200,27,19,27,223,23*78
$GPGSV,3,3,10,20,21,291,26,30,09,178,32*72
$GLGSV,3,1,10,68,15,053,16,69,59,016,25,70,38,268,26,77,00,005,*6F
$GLGSV,3,2,10,78,17,055,14,79,12,105,30,83,04,167,10,84,59,201,19*66
$GLGSV,3,3,10,85,43,318,32,86,02,335,*6C
$GNGLL,4210.1719139,N,00841.2814579,W,092050.00,A,A*60
$GNRMC,092051.00,A,4210.1718965,N,00841.2814395,W,0.020,,091122,,,A*77
$GNVTG,,T,,M,0.020,N,0.037,K,A*3B
$GNGGA,092051.00,4210.1718965,N,00841.2814395,W,1,12,0.68,446.722,M,50.788,M,,*5E
$GNGSA,A,3,06,17,19,20,03,09,07,04,11,,,,1.23,0.68,1.03*13
$GNGSA,A,3,68,69,70,78,79,84,85,,,,,,1.23,0.68,1.03*16
$GPGSV,3,1,10,03,12,090,19,04,40,050,36,06,75,279,33,07,32,149,37*7D
$GPGSV,3,2,10,09,79,053,38,11,40,310,30,17,11,200,28,19,27,223,23*77
$GPGSV,3,3,10,20,21,291,26,30,09,178,31*71
$GLGSV,3,1,10,68,15,053,16,69,59,016,25,70,38,268,25,77,00,005,*6C
$GLGSV,3,2,10,78,17,055,14,79,12,105,31,83,04,167,10,84,59,201,19*67
$GLGSV,3,3,10,85,43,318,33,86,02,335,*6D
$GNGLL,4210.1718965,N,00841.2814395,W,092051.00,A,A*65
$GNRMC,092052.00,A,4210.1718632,N,00841.2814199,W,0.036,,091122,,,A*70
$GNVTG,,T,,M,0.036,N,0.067,K,A*39
$GNGGA,092052.00,4210.1718632,N,00841.2814199,W,1,12,0.68,446.733,M,50.788,M,,*5E
$GNGSA,A,3,06,17,19,20,03,09,07,04,11,,,,1.23,0.68,1.03*13
$GNGSA,A,3,68,69,70,78,79,84,85,,,,,,1.23,0.68,1.03*16
$GPGSV,3,1,10,03,12,090,19,04,40,050,36,06,75,279,33,07,32,149,37*7D
$GPGSV,3,2,10,09,79,053,38,11,40,310,30,17,10,199,29,19,27,223,22*75
$GPGSV,3,3,10,20,21,291,25,30,09,178,31*72
$GLGSV,3,1,10,68,15,053,16,69,59,016,25,70,38,268,25,77,00,005,*6C
$GLGSV,3,2,10,78,17,055,15,79,12,105,31,83,04,167,10,84,59,201,20*6C
$GLGSV,3,3,10,85,43,318,34,86,02,335,*6A
$GNGLL,4210.1718632,N,00841.2814199,W,092052.00,A,A*65
$GNRMC,092053.00,A,4210.1718258,N,00841.2813756,W,0.033,,091122,,,A*7E
$GNVTG,,T,,M,0.033,N,0.061,K,A*3A
$GNGGA,092053.00,4210.1718258,N,00841.2813756,W,1,12,0.68,446.719,M,50.788,M,,*5D
$GNGSA,A,3,06,17,19,20,03,09,07,04,11,,,,1.23,0.68,1.03*13
$GNGSA,A,3,68,69,70,78,79,84,85,,,,,,1.23,0.68,1.03*16
$GPGSV,3,1,10,03,12,090,19,04,40,050,35,06,75,279,33,07,32,149,37*7E
$GPGSV,3,2,10,09,79,053,38,11,40,310,30,17,10,199,28,19,27,223,22*74
$GPGSV,3,3,10,20,21,291,25,30,09,178,31*72
$GLGSV,3,1,10,68,15,053,16,69,59,016,25,70,38,268,25,77,00,005,*6C
$GLGSV,3,2,10,78,17,055,17,79,12,105,31,83,04,167,10,84,59,201,20*6E
$GLGSV,3,3,10,85,43,318,34,86,02,335,*6A
$GNGLL,4210.1718258,N,00841.2813756,W,092053.00,A,A*6E
