$GNRMC,092507.00,A,4210.2107217,N,00841.2957027,W,0.118,,091122,,,A*72
$GNVTG,,T,,M,0.118,N,0.219,K,A*3F
$GNGGA,092507.00,4210.2107217,N,00841.2957027,W,1,12,0.76,449.904,M,50.789,M,,*5A
$GNGSA,A,3,06,19,20,03,09,07,04,11,30,,,,1.39,0.76,1.17*17
$GNGSA,A,3,68,69,70,78,79,84,85,,,,,,1.39,0.76,1.17*17
$GPGSV,3,1,10,03,11,091,24,04,38,050,35,06,76,272,35,07,33,148,23*76
$GPGSV,3,2,10,09,77,051,45,11,42,309,35,17,09,199,28,19,25,222,45*77
$GPGSV,3,3,10,20,23,292,37,30,11,177,20*76
$GLGSV,3,1,10,68,14,054,36,69,57,019,42,70,39,270,25,78,17,053,34*6D
$GLGSV,3,2,10,79,14,104,31,83,03,168,13,84,56,200,14,85,44,316,43*6A
$GLGSV,3,3,10,86,04,335,29,,,,46*52
$GNGLL,4210.2107217,N,00841.2957027,W,092507.00,A,A*6A
$GNTXT,01,01,02,u-blox AG - www.u-blox.com*4E
$GNTXT,01,01,02,HW UBX-M8030 00080000*60
$GNTXT,01,01,02,EXT CORE 3.01 (db0c89)*68
$GNTXT,01,01,02,ROM BASE 2.01 (75331)*19
$GNTXT,01,01,02,FWVER=HPG 1.40REF*0B
$GNTXT,01,01,02,PROTVER=20.30*19
$GNTXT,01,01,02,FIS=0xEF4015 (200049)*57
$GNTXT,01,01,02,GPS;GLO;BDS*06
$GNTXT,01,01,02,QZSS*58
$GNTXT,01,01,02,GNSS OTP=GPS;GLO*37
$GNTXT,01,01,02,LLC=FFFFFFFF-FFFFFFED-FFFFFFFF-FFFFF79E-FFFFFF69*2E
$GNTXT,01,01,02,ANTSUPERV=AC SD PDoS SR*3E
$GNTXT,01,01,02,ANTSTATUS=OK*25
$GNTXT,01,01,02,PF=300*4B
$GNRMC,092508.00,A,4210.2108676,N,00841.2957830,W,0.106,,091122,,,A*70
$GNVTG,,T,,M,0.106,N,0.196,K,A*34
$GNGGA,092508.00,4210.2108676,N,00841.2957830,W,1,12,0.76,449.866,M,50.789,M,,*52
$GNGSA,A,3,06,19,20,03,09,07,04,11,30,,,,1.39,0.76,1.17*17
$GNGSA,A,3,68,69,70,78,79,84,85,,,,,,1.39,0.76,1.17*17
$GPGSV,3,1,10,03,11,091,23,04,38,050,37,06,76,272,38,07,33,148,23*7E
$GPGSV,3,2,10,09,77,051,45,11,42,309,34,17,09,199,28,19,25,222,45*76
$GPGSV,3,3,10,20,23,292,38,30,11,177,20*79
$GLGSV,3,1,10,68,14,054,36,69,57,019,43,70,39,270,25,78,17,053,37*6F
$GLGSV,3,2,10,79,14,104,30,83,03,168,08,84,56,200,16,85,44,316,42*62
$GLGSV,3,3,10,86,04,335,28,,,,44*51
$GNGLL,4210.2108676,N,00841.2957830,W,092508.00,A,A*67
$GNRMC,092509.00,A,4210.2110105,N,00841.2958908,W,0.108,,091122,,,A*70
$GNVTG,,T,,M,0.108,N,0.201,K,A*37
$GNGGA,092509.00,4210.2110105,N,00841.2958908,W,1,12,0.86,450.004,M,50.789,M,,*57
$GNGSA,A,3,06,19,20,03,09,07,04,11,30,,,,1.45,0.86,1.17*13
$GNGSA,A,3,68,69,70,78,79,84,85,,,,,,1.45,0.86,1.17*13
$GPGSV,3,1,10,03,11,091,24,04,38,050,36,06,76,272,36,07,33,148,25*70
$GPGSV,3,2,10,09,77,051,46,11,42,309,35,17,09,199,28,19,25,222,44*75
$GPGSV,3,3,10,20,23,292,36,30,11,177,20*77
$GLGSV,3,1,10,68,14,054,36,69,57,019,43,70,39,270,26,78,17,053,36*6D
$GLGSV,3,2,10,79,14,104,33,83,03,168,13,84,56,200,18,85,44,316,41*66
$GLGSV,3,3,10,86,04,335,27,,,,44*5E
$GNGLL,4210.2110105,N,00841.2958908,W,092509.00,A,A*69
$GNRMC,092510.00,A,4210.2112156,N,00841.2960305,W,0.078,,091122,,,A*76
$GNVTG,,T,,M,0.078,N,0.145,K,A*32
$GNGGA,092510.00,4210.2112156,N,00841.2960305,W,1,12,0.76,450.124,M,50.789,M,,*5B
$GNGSA,A,3,06,19,20,03,09,07,04,11,30,,,,1.39,0.76,1.17*17
$GNGSA,A,3,68,69,70,78,79,84,85,,,,,,1.39,0.76,1.17*17
$GPGSV,3,1,10,03,11,091,22,04,38,050,38,06,76,272,38,07,33,148,26*75
$GPGSV,3,2,10,09,77,051,44,11,42,309,33,17,09,199,28,19,25,222,45*70
$GPGSV,3,3,10,20,23,292,35,30,11,177,23*77
$GLGSV,3,1,10,68,14,054,33,69,57,019,43,70,39,270,25,78,17,052,36*6A
$GLGSV,3,2,10,79,14,104,33,83,03,168,13,84,56,200,21,85,44,316,39*63
$GLGSV,3,3,10,86,04,335,26,,,,44*5F
$GNGLL,4210.2112156,N,00841.2960305,W,092510.00,A,A*69
$GNRMC,092511.00,A,4210.2114156,N,00841.2961377,W,0.069,,091122,,,A*75
$GNVTG,,T,,M,0.069,N,0.128,K,A*39
$GNGGA,092511.00,4210.2114156,N,00841.2961377,W,1,12,0.76,450.256,M,50.789,M,,*5E
$GNGSA,A,3,06,19,20,03,09,07,04,11,30,,,,1.39,0.76,1.17*17
$GNGSA,A,3,68,69,70,78,79,84,85,,,,,,1.39,0.76,1.17*17
$GPGSV,3,1,10,03,11,091,19,04,38,050,38,06,76,272,40,07,33,148,28*7C
$GPGSV,3,2,10,09,77,051,45,11,42,309,30,17,09,199,27,19,25,222,46*7E
$GPGSV,3,3,10,20,23,292,33,30,11,177,26*74
$GLGSV,3,1,10,68,14,054,34,69,57,019,43,70,39,270,25,78,17,052,36*6D
$GLGSV,3,2,10,79,14,103,30,83,03,168,10,84,56,200,22,85,44,316,38*66
$GLGSV,3,3,10,86,04,335,25,,,,43*5B
$GNGLL,4210.2114156,N,00841.2961377,W,092511.00,A,A*6A
$GNRMC,092512.00,A,4210.2115818,N,00841.2962492,W,0.086,,091122,,,A*7A
$GNVTG,,T,,M,0.086,N,0.159,K,A*3E
$GNGGA,092512.00,4210.2115818,N,00841.2962492,W,1,12,0.76,450.493,M,50.789,M,,*5F
$GNGSA,A,3,06,19,20,03,09,07,04,11,30,,,,1.39,0.76,1.17*17
$GNGSA,A,3,68,69,70,78,79,84,85,,,,,,1.39,0.76,1.17*17
$GPGSV,3,1,10,03,11,091,19,04,38,050,39,06,76,272,40,07,33,148,17*71
$GPGSV,3,2,10,09,77,051,36,11,42,309,33,17,09,199,27,19,25,222,49*76
$GPGSV,3,3,10,20,23,292,39,30,11,177,25*7D
$GLGSV,3,1,10,68,14,054,35,69,57,019,44,70,39,270,25,78,17,052,36*6B
$GLGSV,3,2,10,79,14,103,34,83,03,168,08,84,56,200,23,85,44,316,41*64
$GLGSV,3,3,10,86,04,335,24,,,,44*5D
$GNGLL,4210.2115818,N,00841.2962492,W,092512.00,A,A*64
$GNRMC,092513.00,A,4210.2115756,N,00841.2964439,W,0.807,297.34,091122,,,A*6D
$GNVTG,297.34,T,,M,0.807,N,1.495,K,A*2E
$GNGGA,092513.00,4210.2115756,N,00841.2964439,W,1,12,0.76,450.640,M,50.789,M,,*50
$GNGSA,A,3,06,19,20,03,09,07,04,11,30,,,,1.39,0.76,1.17*17
$GNGSA,A,3,68,69,70,78,79,84,85,,,,,,1.39,0.76,1.17*17
$GPGSV,3,1,10,03,11,091,26,04,38,050,37,06,76,272,47,07,33,148,27*77
$GPGSV,3,2,10,09,77,051,42,11,42,309,28,17,09,199,28,19,25,222,44*7D
$GPGSV,3,3,10,20,23,292,41,30,11,177,24*73
$GLGSV,3,1,10,68,14,054,36,69,57,019,44,70,39,270,32,78,17,052,34*6C
$GLGSV,3,2,10,79,14,103,29,83,03,168,09,84,56,200,24,85,44,316,43*6C
$GLGSV,3,3,10,86,04,335,25,,,,45*5D
$GNGLL,4210.2115756,N,00841.2964439,W,092513.00,A,A*67
$GNRMC,092514.00,A,4210.2116158,N,00841.2966162,W,0.207,,091122,,,A*77
$GNVTG,,T,,M,0.207,N,0.382,K,A*31
$GNGGA,092514.00,4210.2116158,N,00841.2966162,W,1,12,0.86,450.648,M,50.789,M,,*52
$GNGSA,A,3,06,19,20,03,09,07,04,11,30,,,,1.45,0.86,1.17*13
$GNGSA,A,3,68,69,70,78,79,84,85,,,,,,1.45,0.86,1.17*13
$GPGSV,3,1,10,03,11,091,24,04,38,050,40,06,76,272,46,07,33,148,31*73
$GPGSV,3,2,10,09,77,051,43,11,42,309,32,17,09,199,27,19,25,222,44*78
$GPGSV,3,3,10,20,23,292,42,30,11,177,23*77
$GLGSV,3,1,10,68,14,054,38,69,57,019,46,70,39,270,34,78,17,052,33*61
$GLGSV,3,2,10,79,14,103,33,83,03,168,10,84,56,200,29,85,44,316,41*60
$GLGSV,3,3,10,86,04,335,26,,,,48*53
$GNGLL,4210.2116158,N,00841.2966162,W,092514.00,A,A*62
$GNRMC,092515.00,A,4210.2117179,N,00841.2966517,W,0.303,,091122,,,A*77
$GNVTG,,T,,M,0.303,N,0.561,K,A*3F
$GNGGA,092515.00,4210.2117179,N,00841.2966517,W,1,12,0.86,450.770,M,50.789,M,,*5D
$GNGSA,A,3,06,19,20,03,09,07,04,11,30,,,,1.45,0.86,1.17*13
$GNGSA,A,3,68,69,70,78,79,84,85,,,,,,1.45,0.86,1.17*13
$GPGSV,3,1,10,03,11,091,22,04,38,050,46,06,76,272,44,07,33,148,26*77
$GPGSV,3,2,10,09,77,051,40,11,42,309,35,17,09,199,26,19,25,222,44*7D
$GPGSV,3,3,10,20,23,292,36,30,11,177,25*72
$GLGSV,3,1,10,68,14,054,39,69,57,019,43,70,39,270,42,78,17,052,33*64
$GLGSV,3,2,10,79,14,103,34,83,02,168,12,84,56,200,24,85,44,316,41*69
$GLGSV,3,3,10,86,04,335,25,,,,46*5E
$GNGLL,4210.2117179,N,00841.2966517,W,092515.00,A,A*67
$GNRMC,092516.00,A,4210.2115557,N,00841.2966651,W,0.661,267.52,091122,,,A*64
$GNVTG,267.52,T,,M,0.661,N,1.223,K,A*24
$GNGGA,092516.00,4210.2115557,N,00841.2966651,W,1,12,0.86,451.468,M,50.789,M,,*5E
$GNGSA,A,3,06,19,20,03,09,07,04,11,30,,,,1.45,0.86,1.17*13
$GNGSA,A,3,68,69,70,78,79,84,85,,,,,,1.45,0.86,1.17*13
$GPGSV,3,1,10,03,11,091,22,04,38,050,43,06,76,272,39,07,33,148,32*7D
$GPGSV,3,2,10,09,77,051,42,11,42,309,37,17,09,199,27,19,25,222,44*7C
$GPGSV,3,3,10,20,23,292,39,30,11,177,25*7D
$GLGSV,3,1,10,68,14,054,32,69,57,019,46,70,39,270,36,78,17,052,34*6E
$GLGSV,3,2,10,79,14,103,30,83,02,168,13,84,56,200,24,85,44,316,35*6F
$GLGSV,3,3,10,86,04,335,25,,,,42*5A
$GNGLL,4210.2115557,N,00841.2966651,W,092516.00,A,A*6F
$GNRMC,092517.00,A,4210.2115313,N,00841.2967060,W,0.075,,091122,,,A*7F
$GNVTG,,T,,M,0.075,N,0.139,K,A*34
$GNGGA,092517.00,4210.2115313,N,00841.2967060,W,1,12,0.86,451.698,M,50.789,M,,*51
$GNGSA,A,3,06,19,20,03,09,07,04,11,30,,,,1.45,0.86,1.17*13
$GNGSA,A,3,68,69,70,78,79,84,85,,,,,,1.45,0.86,1.17*13
$GPGSV,3,1,10,03,11,091,23,04,38,050,34,06,76,272,26,07,33,148,23*72
$GPGSV,3,2,10,09,77,051,35,11,42,309,28,17,09,199,26,19,25,222,31*71
$GPGSV,3,3,10,20,23,292,29,30,11,177,23*7A
$GLGSV,3,1,10,68,14,054,30,69,57,019,32,70,39,270,26,78,17,052,29*62
$GLGSV,3,2,10,79,14,103,27,83,02,168,10,84,56,200,24,85,45,316,31*6F
$GLGSV,3,3,10,86,04,335,24,,,,38*56
$GNGLL,4210.2115313,N,00841.2967060,W,092517.00,A,A*6D
$GNRMC,092518.00,A,4210.2116476,N,00841.2970282,W,0.974,,091122,,,A*77
$GNVTG,,T,,M,0.974,N,1.804,K,A*3A
$GNGGA,092518.00,4210.2116476,N,00841.2970282,W,1,12,0.86,452.202,M,50.789,M,,*55
$GNGSA,A,3,06,19,20,03,09,07,04,11,30,,,,1.45,0.86,1.17*13
$GNGSA,A,3,68,69,70,78,79,84,85,,,,,,1.45,0.86,1.17*13
$GPGSV,3,1,10,03,11,091,20,04,38,050,37,06,76,272,38,07,33,148,22*7C
$GPGSV,3,2,10,09,77,051,38,11,42,309,27,17,09,199,23,19,25,222,30*77
$GPGSV,3,3,10,20,23,292,20,30,11,177,20*70
$GLGSV,3,1,10,68,14,054,34,69,57,019,37,70,39,270,24,78,17,052,30*69
$GLGSV,3,2,10,79,14,103,36,83,02,168,12,84,56,200,22,85,45,316,26*6D
$GLGSV,3,3,10,86,04,335,22,,,,33*5B
$GNGLL,4210.2116476,N,00841.2970282,W,092518.00,A,A*6D
$GNRMC,092519.00,A,4210.2116146,N,00841.2966741,W,0.942,,091122,,,A*78
$GNVTG,,T,,M,0.942,N,1.745,K,A*35
$GNGGA,092519.00,4210.2116146,N,00841.2966741,W,1,12,0.86,452.297,M,50.789,M,,*53
$GNGSA,A,3,06,19,20,03,09,07,04,11,30,,,,1.45,0.86,1.17*13
$GNGSA,A,3,68,69,70,78,79,84,85,,,,,,1.45,0.86,1.17*13
$GPGSV,3,1,10,03,11,091,20,04,38,050,38,06,76,272,33,07,33,148,21*7B
$GPGSV,3,2,10,09,77,051,35,11,42,309,32,17,09,199,19,19,25,222,31*76
$GPGSV,3,3,10,20,23,292,34,30,11,177,19*7F
$GLGSV,3,1,10,68,14,054,28,69,57,019,35,70,39,270,26,78,17,052,30*64
$GLGSV,3,2,10,79,14,103,27,83,02,168,10,84,56,200,24,85,45,316,34*6A
$GLGSV,3,3,10,86,04,335,21,,,,38*53
$GNGLL,4210.2116146,N,00841.2966741,W,092519.00,A,A*67
$GNRMC,092520.00,A,4210.2116011,N,00841.2966502,W,0.501,,091122,,,A*7F
$GNVTG,,T,,M,0.501,N,0.928,K,A*3A
$GNGGA,092520.00,4210.2116011,N,00841.2966502,W,1,12,0.88,452.748,M,50.789,M,,*56
$GNGSA,A,3,06,19,20,03,09,07,04,11,30,,,,1.47,0.88,1.18*10
$GNGSA,A,3,68,69,70,78,79,84,85,,,,,,1.47,0.88,1.18*10
$GPGSV,3,1,10,03,11,091,20,04,38,050,45,06,76,272,44,07,33,148,20*70
$GPGSV,3,2,10,09,77,051,43,11,42,309,35,17,09,199,20,19,25,222,31*7A
$GPGSV,3,3,10,20,23,292,36,30,11,177,19*7D
$GLGSV,3,1,10,68,14,054,28,69,57,019,45,70,39,270,37,78,17,052,37*64
$GLGSV,3,2,10,79,14,103,32,83,02,168,09,84,56,200,21,85,45,316,35*62
$GLGSV,3,3,10,86,04,335,20,,,,40*5D
$GNGLL,4210.2116011,N,00841.2966502,W,092520.00,A,A*6B
$GNRMC,092521.00,A,4210.2116463,N,00841.2966387,W,0.121,,091122,,,A*72
$GNVTG,,T,,M,0.121,N,0.223,K,A*3C
$GNGGA,092521.00,4210.2116463,N,00841.2966387,W,1,12,0.86,452.707,M,50.789,M,,*58
$GNGSA,A,3,06,19,20,03,09,07,04,11,30,,,,1.45,0.86,1.17*13
$GNGSA,A,3,68,69,70,78,79,84,85,,,,,,1.45,0.86,1.17*13
$GPGSV,3,1,10,03,11,091,21,04,38,050,45,06,76,272,46,07,33,148,19*79
$GPGSV,3,2,10,09,77,051,44,11,42,309,29,17,09,199,19,19,25,222,35*7E
$GPGSV,3,3,10,20,23,292,32,30,11,177,18*78
$GLGSV,3,1,10,68,14,054,34,69,57,019,44,70,39,270,34,78,17,052,39*65
$GLGSV,3,2,10,79,14,103,30,83,02,168,12,84,56,200,16,85,45,316,23*69
$GLGSV,3,3,10,86,04,335,19,,,,36*56
$GNGLL,4210.2116463,N,00841.2966387,W,092521.00,A,A*60
$GNRMC,092522.00,A,4210.2116933,N,00841.2965814,W,0.046,,091122,,,A*7B
$GNVTG,,T,,M,0.046,N,0.085,K,A*32
$GNGGA,092522.00,4210.2116933,N,00841.2965814,W,1,12,0.83,452.653,M,50.789,M,,*54
$GNGSA,A,3,06,19,20,03,09,07,04,11,30,,,,1.40,0.83,1.13*17
$GNGSA,A,3,68,69,70,78,79,84,85,,,,,,1.40,0.83,1.13*17
$GPGSV,3,1,10,03,11,091,23,04,38,050,44,06,76,272,42,07,33,148,24*70
$GPGSV,3,2,10,09,77,051,45,11,42,309,30,17,09,199,22,19,25,222,39*73
$GPGSV,3,3,10,20,23,292,30,30,11,177,17*75
$GLGSV,3,1,10,68,14,054,36,69,57,019,46,70,39,270,31,78,17,052,42*6C
$GLGSV,3,2,10,79,14,103,26,83,02,168,09,84,56,200,18,85,45,316,34*6C
$GLGSV,3,3,10,86,04,335,16,,,,34*5B
$GNGLL,4210.2116933,N,00841.2965814,W,092522.00,A,A*69
$GNRMC,092523.00,A,4210.2117579,N,00841.2966448,W,0.395,,091122,,,A*72
$GNVTG,,T,,M,0.395,N,0.731,K,A*37
$GNGGA,092523.00,4210.2117579,N,00841.2966448,W,1,12,0.89,452.968,M,50.789,M,,*5D
$GNGSA,A,3,06,19,20,03,09,07,04,11,30,,,,1.46,0.89,1.15*1D
$GNGSA,A,3,68,69,70,78,79,84,85,,,,,,1.46,0.89,1.15*1D
$GPGSV,3,1,10,03,11,091,22,04,38,050,32,06,76,272,36,07,33,148,24*73
$GPGSV,3,2,10,09,77,051,35,11,42,309,31,17,09,199,24,19,25,222,19*71
$GPGSV,3,3,10,20,23,292,36,30,11,177,16*72
$GLGSV,3,1,10,68,14,054,20,69,57,019,31,70,39,270,32,78,17,052,25*69
$GLGSV,3,2,10,79,14,103,25,83,02,168,10,84,56,200,19,85,45,316,34*66
$GLGSV,3,3,10,86,04,335,13,,,,36*5C
$GNGLL,4210.2117579,N,00841.2966448,W,092523.00,A,A*6D
$GNRMC,092524.00,A,4210.2117701,N,00841.2967034,W,0.246,,091122,,,A*79
$GNVTG,,T,,M,0.246,N,0.456,K,A*3A
$GNGGA,092524.00,4210.2117701,N,00841.2967034,W,1,12,0.83,453.097,M,50.789,M,,*5B
$GNGSA,A,3,06,19,20,03,09,07,04,11,,,,,1.40,0.83,1.13*14
$GNGSA,A,3,68,69,70,78,79,84,85,,,,,,1.40,0.83,1.13*17
$GPGSV,3,1,10,03,11,091,23,04,38,050,43,06,76,272,49,07,33,148,22*7A
$GPGSV,3,2,10,09,77,051,48,11,42,309,36,17,09,199,23,19,25,222,27*76
$GPGSV,3,3,10,20,23,292,37,30,11,177,*74
$GLGSV,3,1,10,68,14,054,30,69,57,019,43,70,39,270,38,78,17,052,34*67
$GLGSV,3,2,10,79,14,103,24,83,02,168,09,84,56,200,21,85,45,316,31*61
$GLGSV,3,3,10,86,04,335,,,,,38*50
$GNGLL,4210.2117701,N,00841.2967034,W,092524.00,A,A*69
$GNRMC,092525.00,A,4210.2118484,N,00841.2966537,W,0.120,,091122,,,A*7D
$GNVTG,,T,,M,0.120,N,0.222,K,A*3C
$GNGGA,092525.00,4210.2118484,N,00841.2966537,W,1,12,0.83,453.175,M,50.789,M,,*51
$GNGSA,A,3,06,19,20,03,09,07,04,11,,,,,1.40,0.83,1.13*14
$GNGSA,A,3,68,69,70,78,79,84,85,,,,,,1.40,0.83,1.13*17
$GPGSV,3,1,10,03,11,091,23,04,38,050,44,06,76,272,46,07,33,148,22*72
$GPGSV,3,2,10,09,77,051,46,11,42,309,37,17,09,199,21,19,25,222,44*7E
$GPGSV,3,3,10,20,23,292,37,30,11,177,18*7D
$GLGSV,3,1,10,68,14,054,34,69,57,019,46,70,39,270,29,78,17,052,43*66
$GLGSV,3,2,10,79,14,103,30,83,02,168,13,84,56,200,22,85,45,316,47*6D
$GLGSV,3,3,10,86,04,335,,,,,49*56
$GNGLL,4210.2118484,N,00841.2966537,W,092525.00,A,A*6E
$GNRMC,092526.00,A,4210.2119296,N,00841.2966145,W,0.039,,091122,,,A*72
$GNVTG,,T,,M,0.039,N,0.073,K,A*33
$GNGGA,092526.00,4210.2119296,N,00841.2966145,W,1,12,0.77,453.197,M,50.789,M,,*50
$GNGSA,A,3,06,19,20,03,09,07,04,11,,,,,1.39,0.77,1.15*17
$GNGSA,A,3,68,69,70,78,79,84,85,,,,,,1.39,0.77,1.15*14
$GPGSV,3,1,10,03,11,091,23,04,38,050,45,06,76,271,49,07,33,148,26*7B
$GPGSV,3,2,10,09,77,051,46,11,42,309,38,17,09,199,21,19,25,222,44*71
$GPGSV,3,3,10,20,23,292,40,30,11,177,22*74
$GLGSV,3,1,10,68,14,054,30,69,57,019,49,70,39,270,36,78,17,052,38*6F
$GLGSV,3,2,10,79,14,103,23,83,02,168,11,84,56,200,29,85,45,316,47*66
$GLGSV,3,3,10,86,04,335,,,,,51*5F
$GNGLL,4210.2119296,N,00841.2966145,W,092526.00,A,A*68
$GNRMC,092527.00,A,4210.2120076,N,00841.2965998,W,0.063,,091122,,,A*71
$GNVTG,,T,,M,0.063,N,0.117,K,A*3F
$GNGGA,092527.00,4210.2120076,N,00841.2965998,W,1,12,0.75,453.193,M,50.789,M,,*5A
$GNGSA,A,3,06,19,20,03,09,07,04,11,,,,,1.35,0.75,1.13*1F
$GNGSA,A,3,68,69,70,78,79,84,85,,,,,,1.35,0.75,1.13*1C
$GPGSV,3,1,10,03,11,091,24,04,38,050,45,06,76,271,47,07,33,147,26*7D
$GPGSV,3,2,10,09,77,051,47,11,42,309,39,17,09,199,21,19,25,222,44*71
$GPGSV,3,3,10,20,23,292,34,30,11,177,19*7F
$GLGSV,3,1,10,68,14,054,31,69,57,019,50,70,39,270,35,78,17,052,39*64
$GLGSV,3,2,10,79,14,103,25,83,02,168,10,84,56,200,29,85,45,316,47*61
$GLGSV,3,3,10,86,04,335,,,,,50*5E
$GNGLL,4210.2120076,N,00841.2965998,W,092527.00,A,A*64
$GNRMC,092528.00,A,4210.2120228,N,00841.2966042,W,0.074,,091122,,,A*7C
$GNVTG,,T,,M,0.074,N,0.136,K,A*3A
$GNGGA,092528.00,4210.2120228,N,00841.2966042,W,1,12,0.83,453.215,M,50.789,M,,*55
$GNGSA,A,3,06,19,20,03,09,07,04,11,,,,,1.40,0.83,1.13*14
$GNGSA,A,3,68,69,70,78,79,84,85,,,,,,1.40,0.83,1.13*17
$GPGSV,3,1,10,03,11,091,26,04,38,050,44,06,76,271,47,07,33,147,23*7B
$GPGSV,3,2,10,09,77,051,46,11,42,309,39,17,09,199,18,19,25,222,45*7B
$GPGSV,3,3,10,20,23,292,37,30,11,177,17*72
$GLGSV,3,1,10,68,14,054,31,69,57,019,49,70,39,270,35,78,17,052,39*6C
$GLGSV,3,2,10,79,14,103,24,83,02,168,10,84,56,200,29,85,45,316,46*61
$GLGSV,3,3,10,86,04,335,,,,,49*56
$GNGLL,4210.2120228,N,00841.2966042,W,092528.00,A,A*6F
$GNRMC,092529.00,A,4210.2120572,N,00841.2965970,W,0.057,,091122,,,A*7F
$GNVTG,,T,,M,0.057,N,0.106,K,A*38
$GNGGA,092529.00,4210.2120572,N,00841.2965970,W,1,12,0.83,453.208,M,50.789,M,,*5B
$GNGSA,A,3,06,19,20,03,09,07,04,11,,,,,1.40,0.83,1.13*14
$GNGSA,A,3,68,69,70,78,79,84,85,,,,,,1.40,0.83,1.13*17
$GPGSV,3,1,10,03,11,091,26,04,38,050,45,06,76,271,46,07,33,147,22*7A
$GPGSV,3,2,10,09,77,050,46,11,42,309,40,17,09,199,20,19,25,222,46*7C
$GPGSV,3,3,10,20,23,292,37,30,11,177,*74
$GLGSV,3,1,10,68,14,054,35,69,57,019,50,70,39,270,34,78,17,052,40*6F
$GLGSV,3,2,10,79,14,103,22,83,02,168,10,84,56,200,29,85,45,316,47*66
$GLGSV,3,3,10,86,04,335,,,,,50*5E
$GNGLL,4210.2120572,N,00841.2965970,W,092529.00,A,A*6D
$GNRMC,092530.00,A,4210.2121056,N,00841.2966091,W,0.008,,091122,,,A*7A
$GNVTG,,T,,M,0.008,N,0.015,K,A*31
$GNGGA,092530.00,4210.2121056,N,00841.2966091,W,1,12,0.83,453.225,M,50.789,M,,*5B
$GNGSA,A,3,06,19,20,03,09,07,04,11,,,,,1.40,0.83,1.13*14
$GNGSA,A,3,68,69,70,78,79,84,85,,,,,,1.40,0.83,1.13*17
$GPGSV,3,1,10,03,11,091,27,04,38,050,45,06,76,271,46,07,33,147,24*7D
$GPGSV,3,2,10,09,77,050,47,11,42,309,41,17,09,199,21,19,25,222,46*7D
$GPGSV,3,3,10,20,23,292,37,30,11,177,*74
$GLGSV,3,1,10,68,14,054,36,69,57,019,50,70,39,270,33,78,17,052,40*6B
$GLGSV,3,2,10,79,14,103,19,83,02,168,10,84,56,200,30,85,45,316,48*69
$GLGSV,3,3,10,86,04,335,,,,,51*5F
$GNGLL,4210.2121056,N,00841.2966091,W,092530.00,A,A*62
$GNRMC,092531.00,A,4210.2121477,N,00841.2966250,W,0.054,,091122,,,A*7A
$GNVTG,,T,,M,0.054,N,0.100,K,A*3D
$GNGGA,092531.00,4210.2121477,N,00841.2966250,W,1,12,0.83,453.258,M,50.789,M,,*58
$GNGSA,A,3,06,19,20,03,09,07,04,11,,,,,1.40,0.83,1.13*14
$GNGSA,A,3,68,69,70,78,79,84,85,,,,,,1.40,0.83,1.13*17
$GPGSV,3,1,10,03,11,091,26,04,38,050,45,06,76,271,47,07,33,147,24*7D
$GPGSV,3,2,10,09,77,050,46,11,42,309,39,17,09,199,20,19,25,222,45*71
$GPGSV,3,3,10,20,23,292,36,30,11,177,*75
$GLGSV,3,1,10,68,14,054,36,69,57,019,49,70,39,270,35,78,17,052,42*67
$GLGSV,3,2,10,79,14,103,19,83,02,168,10,84,56,200,30,85,45,316,47*66
$GLGSV,3,3,10,86,04,335,,,,,49*56
$GNGLL,4210.2121477,N,00841.2966250,W,092531.00,A,A*6B
$GNRMC,092532.00,A,4210.2121748,N,00841.2966552,W,0.111,,091122,,,A*73
$GNVTG,,T,,M,0.111,N,0.206,K,A*38
$GNGGA,092532.00,4210.2121748,N,00841.2966552,W,1,12,0.83,453.329,M,50.789,M,,*56
$GNGSA,A,3,06,19,20,03,09,07,04,11,,,,,1.40,0.83,1.13*14
$GNGSA,A,3,68,69,70,78,79,84,85,,,,,,1.40,0.83,1.13*17
$GPGSV,3,1,10,03,11,091,23,04,38,050,40,06,76,271,41,07,33,147,22*7D
$GPGSV,3,2,10,09,77,050,43,11,42,309,27,17,09,199,19,19,25,222,41*75
$GPGSV,3,3,10,20,23,292,32,30,11,177,07*76
$GLGSV,3,1,10,68,14,054,25,69,57,019,30,70,39,270,22,78,17,052,35*6D
$GLGSV,3,2,10,79,14,103,20,83,02,168,11,84,56,200,27,85,45,316,35*6E
$GLGSV,3,3,10,86,04,335,,,,,38*50
$GNGLL,4210.2121748,N,00841.2966552,W,092532.00,A,A*62
$GNRMC,092533.00,A,4210.2122134,N,00841.2966985,W,0.069,,091122,,,A*74
$GNVTG,,T,,M,0.069,N,0.128,K,A*39
$GNGGA,092533.00,4210.2122134,N,00841.2966985,W,1,12,0.83,453.307,M,50.789,M,,*53
$GNGSA,A,3,06,19,20,03,09,07,04,11,,,,,1.40,0.83,1.13*14
$GNGSA,A,3,68,69,70,78,79,84,85,,,,,,1.40,0.83,1.13*17
$GPGSV,3,1,10,03,11,091,22,04,38,050,42,06,76,271,47,07,33,147,21*7B
$GPGSV,3,2,10,09,77,050,45,11,42,309,39,17,09,199,18,19,25,222,45*79
$GPGSV,3,3,10,20,23,292,36,30,11,177,*75
$GLGSV,3,1,10,68,14,054,30,69,57,019,47,70,39,270,32,78,17,052,37*6A
$GLGSV,3,2,10,79,14,103,24,83,02,168,14,84,56,200,27,85,45,316,46*6B
$GLGSV,3,3,10,86,04,335,,,,,49*56
$GNGLL,4210.2122134,N,00841.2966985,W,092533.00,A,A*6B
$GNRMC,092534.00,A,4210.2122419,N,00841.2967085,W,0.064,,091122,,,A*7C
$GNVTG,,T,,M,0.064,N,0.118,K,A*37
$GNGGA,092534.00,4210.2122419,N,00841.2967085,W,1,12,0.83,453.297,M,50.789,M,,*5E
$GNGSA,A,3,06,19,20,03,09,07,04,11,,,,,1.40,0.83,1.13*14
$GNGSA,A,3,68,69,70,78,79,84,85,,,,,,1.40,0.83,1.13*17
$GPGSV,3,1,10,03,11,091,21,04,38,050,43,06,76,271,47,07,33,147,21*79
$GPGSV,3,2,10,09,77,050,45,11,42,309,37,17,09,199,21,19,25,222,44*7C
$GPGSV,3,3,10,20,23,292,37,30,11,177,17*72
$GLGSV,3,1,10,68,14,054,31,69,57,019,48,70,39,270,37,78,17,052,38*6E
$GLGSV,3,2,10,79,14,103,24,83,02,168,12,84,56,200,28,85,45,316,46*62
$GLGSV,3,3,10,86,04,335,,,,,49*56
$GNGLL,4210.2122419,N,00841.2967085,W,092534.00,A,A*6E
$GNRMC,092535.00,A,4210.2122981,N,00841.2967272,W,0.039,,091122,,,A*73
$GNVTG,,T,,M,0.039,N,0.072,K,A*32
$GNGGA,092535.00,4210.2122981,N,00841.2967272,W,1,12,0.83,453.208,M,50.789,M,,*5F
$GNGSA,A,3,06,19,20,03,09,07,04,11,,,,,1.40,0.83,1.13*14
$GNGSA,A,3,68,69,70,78,79,84,85,,,,,,1.40,0.83,1.13*17
$GPGSV,3,1,10,03,11,091,21,04,38,050,43,06,76,271,47,07,33,147,23*7B
$GPGSV,3,2,10,09,77,050,45,11,42,309,36,17,09,199,22,19,25,222,45*7F
$GPGSV,3,3,10,20,23,292,37,30,11,177,18*7D
$GLGSV,3,1,10,68,14,054,30,69,57,019,48,70,39,270,35,78,17,052,38*6D
$GLGSV,3,2,10,79,14,103,24,83,02,168,14,84,56,200,29,85,45,316,46*65
$GLGSV,3,3,10,86,04,335,,,,,49*56
$GNGLL,4210.2122981,N,00841.2967272,W,092535.00,A,A*69
$GNRMC,092536.00,A,4210.2123463,N,00841.2967159,W,0.048,,091122,,,A*7C
$GNVTG,,T,,M,0.048,N,0.088,K,A*31
$GNGGA,092536.00,4210.2123463,N,00841.2967159,W,1,12,0.83,453.187,M,50.789,M,,*52
$GNGSA,A,3,06,19,20,03,09,07,04,11,,,,,1.40,0.83,1.13*14
$GNGSA,A,3,68,69,70,78,79,84,85,,,,,,1.40,0.83,1.13*17
$GPGSV,3,1,10,03,11,091,22,04,38,050,43,06,76,271,47,07,33,147,25*7E
$GPGSV,3,2,10,09,77,050,45,11,42,309,36,17,09,199,19,19,25,222,44*76
$GPGSV,3,3,10,20,23,292,36,30,11,177,14*70
$GLGSV,3,1,10,68,14,054,30,69,57,019,49,70,39,270,35,78,17,052,38*6C
$GLGSV,3,2,10,79,14,103,23,83,02,168,10,84,56,200,31,85,45,316,46*6F
$GLGSV,3,3,10,86,04,335,,,,,50*5E
$GNGLL,4210.2123463,N,00841.2967159,W,092536.00,A,A*60
$GNRMC,092537.00,A,4210.2124031,N,00841.2966965,W,0.033,,091122,,,A*73
$GNVTG,,T,,M,0.033,N,0.061,K,A*3A
$GNGGA,092537.00,4210.2124031,N,00841.2966965,W,1,12,0.83,453.165,M,50.789,M,,*5D
$GNGSA,A,3,06,19,20,03,09,07,04,11,,,,,1.40,0.83,1.13*14
$GNGSA,A,3,68,69,70,78,79,84,85,,,,,,1.40,0.83,1.13*17
$GPGSV,3,1,10,03,11,091,23,04,38,050,43,06,76,271,47,07,33,147,25*7F
$GPGSV,3,2,10,09,77,050,45,11,42,309,35,17,09,198,16,19,25,222,43*7C
$GPGSV,3,3,10,20,23,292,36,30,11,177,13*77
$GLGSV,3,1,10,68,14,054,31,69,57,019,48,70,39,270,35,78,17,052,38*6C
$GLGSV,3,2,10,79,14,103,23,83,02,168,17,84,56,200,31,85,45,316,46*68
$GLGSV,3,3,10,86,04,335,,,,,50*5E
$GNGLL,4210.2124031,N,00841.2966965,W,092537.00,A,A*63
$GNRMC,092538.00,A,4210.2124388,N,00841.2966823,W,0.019,,091122,,,A*76
$GNVTG,,T,,M,0.019,N,0.036,K,A*30
$GNGGA,092538.00,4210.2124388,N,00841.2966823,W,1,12,0.83,453.161,M,50.789,M,,*54
$GNGSA,A,3,06,19,20,03,09,07,04,11,,,,,1.40,0.83,1.13*14
$GNGSA,A,3,68,69,70,78,79,84,85,,,,,,1.40,0.83,1.13*17
$GPGSV,3,1,10,03,11,091,23,04,38,050,43,06,76,271,47,07,33,147,23*79
$GPGSV,3,2,10,09,77,050,44,11,42,309,35,17,09,198,14,19,25,222,43*7F
$GPGSV,3,3,10,20,23,292,36,30,11,177,11*75
$GLGSV,3,1,10,68,14,054,33,69,57,019,48,70,39,270,35,78,17,052,38*6E
$GLGSV,3,2,10,79,14,103,25,83,02,168,14,84,56,200,31,85,45,316,45*6E
$GLGSV,3,3,10,86,04,335,21,,,,49*55
$GNGLL,4210.2124388,N,00841.2966823,W,092538.00,A,A*6E
$GNRMC,092539.00,A,4210.2124852,N,00841.2966849,W,0.050,,091122,,,A*7A
$GNVTG,,T,,M,0.050,N,0.092,K,A*33
$GNGGA,092539.00,4210.2124852,N,00841.2966849,W,1,12,0.75,453.209,M,50.789,M,,*51
$GNGSA,A,3,06,19,20,03,09,07,04,11,30,,,,1.35,0.75,1.13*1C
$GNGSA,A,3,68,69,70,78,79,84,85,,,,,,1.35,0.75,1.13*1C
$GPGSV,3,1,10,03,11,091,22,04,38,050,43,06,76,271,47,07,33,147,23*78
$GPGSV,3,2,10,09,77,050,45,11,42,309,35,17,09,198,12,19,25,222,43*78
$GPGSV,3,3,10,20,23,292,37,30,11,177,10*75
$GLGSV,3,1,10,68,14,054,33,69,57,019,48,70,39,270,35,78,17,052,38*6E
$GLGSV,3,2,10,79,14,103,27,83,02,168,15,84,56,200,31,85,45,316,46*6E
$GLGSV,3,3,10,86,04,335,20,,,,49*54
$GNGLL,4210.2124852,N,00841.2966849,W,092539.00,A,A*6F
$GNRMC,092540.00,A,4210.2125158,N,00841.2966914,W,0.043,,091122,,,A*7D
$GNVTG,,T,,M,0.043,N,0.080,K,A*32
$GNGGA,092540.00,4210.2125158,N,00841.2966914,W,1,12,0.75,453.265,M,50.789,M,,*5E
$GNGSA,A,3,06,19,20,03,09,07,04,11,,,,,1.35,0.75,1.13*1F
$GNGSA,A,3,68,69,70,78,79,84,85,,,,,,1.35,0.75,1.13*1C
$GPGSV,3,1,10,03,11,091,22,04,38,050,45,06,76,271,46,07,33,147,23*7F
$GPGSV,3,2,10,09,77,050,45,11,42,309,40,17,09,198,14,19,25,222,45*7A
$GPGSV,3,3,10,20,23,293,37,30,11,177,*75
$GLGSV,3,1,10,68,14,054,34,69,57,019,49,70,39,270,32,78,17,052,38*6F
$GLGSV,3,2,10,79,14,103,25,83,02,168,10,84,56,200,31,85,45,316,47*68
$GLGSV,3,3,10,86,04,335,21,,,,49*55
$GNGLL,4210.2125158,N,00841.2966914,W,092540.00,A,A*6A
$GNRMC,092541.00,A,4210.2125467,N,00841.2966899,W,0.018,,091122,,,A*7F
$GNVTG,,T,,M,0.018,N,0.033,K,A*34
$GNGGA,092541.00,4210.2125467,N,00841.2966899,W,1,12,0.75,453.302,M,50.789,M,,*52
$GNGSA,A,3,06,19,20,03,09,07,04,11,,,,,1.35,0.75,1.13*1F
$GNGSA,A,3,68,69,70,78,79,84,85,,,,,,1.35,0.75,1.13*1C
$GPGSV,3,1,10,03,11,091,22,04,38,050,45,06,76,271,47,07,33,147,25*78
$GPGSV,3,2,10,09,77,050,45,11,42,309,40,17,09,198,19,19,25,222,45*77
$GPGSV,3,3,10,20,23,293,37,30,11,177,*75
$GLGSV,3,1,10,68,14,054,33,69,57,019,49,70,39,270,33,78,17,052,38*69
$GLGSV,3,2,10,79,14,103,23,83,02,168,12,84,56,200,31,85,45,316,47*6C
$GLGSV,3,3,10,86,04,335,22,,,,49*56
$GNGLL,4210.2125467,N,00841.2966899,W,092541.00,A,A*66
$GNRMC,092542.00,A,4210.2125846,N,00841.2966857,W,0.030,,091122,,,A*7B
$GNVTG,,T,,M,0.030,N,0.055,K,A*3E
$GNGGA,092542.00,4210.2125846,N,00841.2966857,W,1,12,0.75,453.317,M,50.789,M,,*58
$GNGSA,A,3,06,19,20,03,09,07,04,11,,,,,1.35,0.75,1.13*1F
$GNGSA,A,3,68,69,70,78,79,84,85,,,,,,1.35,0.75,1.13*1C
$GPGSV,3,1,10,03,11,091,22,04,38,050,45,06,76,271,47,07,33,147,25*78
$GPGSV,3,2,10,09,77,050,45,11,42,309,39,17,09,198,21,19,25,222,45*72
$GPGSV,3,3,10,20,23,293,35,30,11,177,*77
$GLGSV,3,1,10,68,14,054,33,69,57,019,49,70,39,270,33,78,17,052,38*69
$GLGSV,3,2,10,79,14,103,20,83,02,168,09,84,56,200,31,85,45,316,45*67
$GLGSV,3,3,10,86,04,335,22,,,,49*56
$GNGLL,4210.2125846,N,00841.2966857,W,092542.00,A,A*68
$GNRMC,092543.00,A,4210.2126038,N,00841.2966786,W,0.010,,091122,,,A*79
$GNVTG,,T,,M,0.010,N,0.018,K,A*35
$GNGGA,092543.00,4210.2126038,N,00841.2966786,W,1,12,0.77,453.350,M,50.789,M,,*59
$GNGSA,A,3,06,19,20,03,09,07,04,11,,,,,1.39,0.77,1.16*14
$GNGSA,A,3,68,69,70,78,79,84,85,,,,,,1.39,0.77,1.16*17
$GPGSV,3,1,10,03,11,091,22,04,38,050,45,06,76,271,48,07,33,147,25*77
$GPGSV,3,2,10,09,77,050,45,11,42,309,35,17,09,198,20,19,25,222,43*79
$GPGSV,3,3,10,20,23,293,35,30,11,177,*77
$GLGSV,3,1,10,68,14,054,34,69,57,019,48,70,39,270,35,78,17,052,38*69
$GLGSV,3,2,10,79,14,103,17,83,02,168,12,84,56,200,31,85,45,316,45*69
$GLGSV,3,3,10,86,04,335,23,,,,49*57
$GNGLL,4210.2126038,N,00841.2966786,W,092543.00,A,A*68
$GNRMC,092544.00,A,4210.2126125,N,00841.2966664,W,0.073,,091122,,,A*7B
$GNVTG,,T,,M,0.073,N,0.134,K,A*3F
$GNGGA,092544.00,4210.2126125,N,00841.2966664,W,1,12,0.77,453.382,M,50.789,M,,*51
$GNGSA,A,3,06,19,20,03,09,07,04,11,,,,,1.39,0.77,1.16*14
$GNGSA,A,3,68,69,70,78,79,84,85,,,,,,1.39,0.77,1.16*17
$GPGSV,3,1,10,03,11,091,20,04,38,050,43,06,76,271,48,07,33,147,24*72
$GPGSV,3,2,10,09,77,050,43,11,42,309,35,17,09,198,20,19,25,222,43*7F
$GPGSV,3,3,10,20,23,293,37,30,11,177,*75
$GLGSV,3,1,10,68,14,054,32,69,57,019,48,70,39,270,34,78,17,052,37*61
$GLGSV,3,2,10,79,14,103,22,83,02,168,09,84,56,200,31,85,45,316,46*66
$GLGSV,3,3,10,86,04,335,22,,,,49*56
$GNGLL,4210.2126125,N,00841.2966664,W,092544.00,A,A*6F
$GNRMC,092545.00,A,4210.2126377,N,00841.2966653,W,0.019,,091122,,,A*77
$GNVTG,,T,,M,0.019,N,0.035,K,A*33
$GNGGA,092545.00,4210.2126377,N,00841.2966653,W,1,12,0.75,453.456,M,50.789,M,,*5D
$GNGSA,A,3,06,19,20,03,09,07,04,11,,,,,1.35,0.75,1.13*1F
$GNGSA,A,3,68,69,70,78,79,84,85,,,,,,1.35,0.75,1.13*1C
$GPGSV,3,1,10,03,11,091,19,04,38,050,43,06,76,271,48,07,33,147,22*7E
$GPGSV,3,2,10,09,77,050,43,11,42,309,36,17,09,198,22,19,25,222,43*7E
$GPGSV,3,3,10,20,23,293,38,30,11,177,*7A
$GLGSV,3,1,10,68,14,054,32,69,57,019,48,70,39,270,34,78,17,052,38*6E
$GLGSV,3,2,10,79,14,103,26,83,02,168,11,84,56,200,30,85,45,316,45*69
$GLGSV,3,3,10,86,04,335,22,,,,48*57
$GNGLL,4210.2126377,N,00841.2966653,W,092545.00,A,A*6F
$GNRMC,092546.00,A,4210.2126577,N,00841.2966651,W,0.059,,091122,,,A*74
$GNVTG,,T,,M,0.059,N,0.109,K,A*39
$GNGGA,092546.00,4210.2126577,N,00841.2966651,W,1,12,0.75,453.533,M,50.789,M,,*58
$GNGSA,A,3,06,19,20,03,09,07,04,11,,,,,1.35,0.75,1.13*1F
$GNGSA,A,3,68,69,70,78,79,84,85,,,,,,1.35,0.75,1.13*1C
$GPGSV,3,1,10,03,11,091,18,04,38,050,42,06,76,271,48,07,33,147,18*77
$GPGSV,3,2,10,09,77,050,43,11,42,309,37,17,09,198,23,19,25,222,41*7C
$GPGSV,3,3,10,20,23,293,38,30,11,177,23*7B
$GLGSV,3,1,10,68,14,054,32,69,57,019,47,70,39,270,34,78,17,052,38*61
$GLGSV,3,2,10,79,14,103,28,83,02,168,11,84,56,200,30,85,45,316,45*67
$GLGSV,3,3,10,86,04,335,22,,,,48*57
$GNGLL,4210.2126577,N,00841.2966651,W,092546.00,A,A*68
$GNRMC,092547.00,A,4210.2126648,N,00841.2966631,W,0.010,,091122,,,A*71
$GNVTG,,T,,M,0.010,N,0.018,K,A*35
$GNGGA,092547.00,4210.2126648,N,00841.2966631,W,1,12,0.75,453.603,M,50.789,M,,*50
$GNGSA,A,3,06,19,20,03,09,07,04,11,,,,,1.35,0.75,1.13*1F
$GNGSA,A,3,68,69,70,78,79,84,85,,,,,,1.35,0.75,1.13*1C
$GPGSV,3,1,10,03,11,091,16,04,38,050,42,06,76,271,47,07,33,147,16*78
$GPGSV,3,2,10,09,77,050,42,11,42,309,38,17,09,198,23,19,25,222,40*73
$GPGSV,3,3,10,20,23,293,37,30,11,177,20*77
$GLGSV,3,1,10,68,14,054,33,69,57,019,48,70,39,270,34,78,17,052,39*6E
$GLGSV,3,2,10,79,14,103,28,83,02,168,08,84,56,200,30,85,45,316,46*6C
$GLGSV,3,3,10,86,04,335,22,,,,49*56
$GNGLL,4210.2126648,N,00841.2966631,W,092547.00,A,A*60
$GNRMC,092548.00,A,4210.2126676,N,00841.2966655,W,0.021,,091122,,,A*73
$GNVTG,,T,,M,0.021,N,0.040,K,A*3A
$GNGGA,092548.00,4210.2126676,N,00841.2966655,W,1,12,0.75,453.666,M,50.789,M,,*53
$GNGSA,A,3,06,19,20,03,09,07,04,11,,,,,1.35,0.75,1.13*1F
$GNGSA,A,3,68,69,70,78,79,84,85,,,,,,1.35,0.75,1.13*1C
$GPGSV,3,1,10,03,11,091,14,04,38,050,42,06,76,271,47,07,33,147,14*78
$GPGSV,3,2,10,09,77,050,42,11,42,309,37,17,09,198,21,19,25,222,41*7F
$GPGSV,3,3,10,20,23,293,37,30,11,177,18*7C
$GLGSV,3,1,10,68,14,054,33,69,57,019,47,70,39,270,34,78,17,052,39*61
$GLGSV,3,2,10,79,14,103,27,83,02,168,08,84,56,200,30,85,45,316,46*63
$GLGSV,3,3,10,86,04,335,20,,,,48*55
$GNGLL,4210.2126676,N,00841.2966655,W,092548.00,A,A*60
$GNRMC,092549.00,A,4210.2126727,N,00841.2966709,W,0.017,,091122,,,A*7A
$GNVTG,,T,,M,0.017,N,0.031,K,A*39
$GNGGA,092549.00,4210.2126727,N,00841.2966709,W,1,12,0.75,453.706,M,50.789,M,,*58
$GNGSA,A,3,06,19,20,03,09,07,04,11,,,,,1.35,0.75,1.13*1F
$GNGSA,A,3,68,69,70,78,79,84,85,,,,,,1.35,0.75,1.13*1C
$GPGSV,3,1,10,03,11,091,14,04,38,050,40,06,76,271,47,07,33,147,14*7A
$GPGSV,3,2,10,09,77,050,43,11,42,309,38,17,09,198,19,19,25,222,40*7B
$GPGSV,3,3,10,20,23,293,34,30,11,177,18*7F
$GLGSV,3,1,10,68,14,054,33,69,57,019,45,70,39,270,34,78,17,052,39*63
$GLGSV,3,2,10,79,14,103,28,83,02,168,12,84,56,200,31,85,45,316,47*67
$GLGSV,3,3,10,86,04,335,20,,,,49*54
$GNGLL,4210.2126727,N,00841.2966709,W,092549.00,A,A*6C
$GNRMC,092550.00,A,4210.2126427,N,00841.2966749,W,0.016,,091122,,,A*74
$GNVTG,,T,,M,0.016,N,0.029,K,A*31
$GNGGA,092550.00,4210.2126427,N,00841.2966749,W,1,12,0.75,453.765,M,50.789,M,,*52
$GNGSA,A,3,06,19,20,03,09,07,04,11,,,,,1.35,0.75,1.13*1F
$GNGSA,A,3,68,69,70,78,79,84,85,,,,,,1.35,0.75,1.13*1C
$GPGSV,3,1,10,03,11,091,15,04,38,050,42,06,76,271,48,07,33,147,14*76
$GPGSV,3,2,10,09,77,050,44,11,42,309,37,17,09,198,21,19,25,222,44*7C
$GPGSV,3,3,10,20,23,293,33,30,11,177,21*72
$GLGSV,3,1,10,68,14,054,36,69,57,019,47,70,39,270,33,78,17,052,40*6D
$GLGSV,3,2,10,79,14,103,32,83,02,168,12,84,56,200,35,85,45,316,44*6B
$GLGSV,3,3,10,86,04,335,18,,,,48*5E
$GNGLL,4210.2126427,N,00841.2966749,W,092550.00,A,A*63
$GNRMC,092551.00,A,4210.2126175,N,00841.2966584,W,0.038,,091122,,,A*78
$GNVTG,,T,,M,0.038,N,0.071,K,A*30
$GNGGA,092551.00,4210.2126175,N,00841.2966584,W,1,12,0.75,453.868,M,50.789,M,,*50
$GNGSA,A,3,06,19,20,03,09,07,04,11,,,,,1.35,0.75,1.13*1F
$GNGSA,A,3,68,69,70,78,79,84,85,,,,,,1.35,0.75,1.13*1C
$GPGSV,3,1,10,03,11,091,15,04,38,050,44,06,76,271,49,07,33,147,20*76
$GPGSV,3,2,10,09,77,050,47,11,42,309,41,17,09,198,22,19,25,222,44*7D
$GPGSV,3,3,10,20,23,293,37,30,11,177,*75
$GLGSV,3,1,10,68,14,054,29,69,57,019,47,70,39,270,33,78,17,052,35*61
$GLGSV,3,2,10,79,14,103,25,83,02,168,09,84,56,200,34,85,45,316,45*67
$GLGSV,3,3,10,86,04,335,21,,,,49*55
$GNGLL,4210.2126175,N,00841.2966584,W,092551.00,A,A*63
$GNRMC,092552.00,A,4210.2126066,N,00841.2966460,W,0.020,,091122,,,A*7A
$GNVTG,,T,,M,0.020,N,0.038,K,A*34
$GNGGA,092552.00,4210.2126066,N,00841.2966460,W,1,12,0.75,453.898,M,50.789,M,,*54
$GNGSA,A,3,06,19,20,03,09,07,04,11,,,,,1.35,0.75,1.13*1F
$GNGSA,A,3,68,69,70,78,79,84,85,,,,,,1.35,0.75,1.13*1C
$GPGSV,3,1,10,03,11,091,15,04,38,050,44,06,76,271,49,07,33,147,23*75
$GPGSV,3,2,10,09,77,050,46,11,42,309,40,17,09,198,23,19,25,222,45*7D
$GPGSV,3,3,10,20,23,293,37,30,11,177,*75
$GLGSV,3,1,10,68,14,054,27,69,57,019,47,70,39,270,33,78,17,052,34*6E
$GLGSV,3,2,10,79,14,103,25,83,02,168,10,84,56,200,30,85,45,316,46*68
$GLGSV,3,3,10,86,04,335,22,,,,49*56
$GNGLL,4210.2126066,N,00841.2966460,W,092552.00,A,A*68
$GNRMC,092553.00,A,4210.2126069,N,00841.2966334,W,0.030,,091122,,,A*73
$GNVTG,,T,,M,0.030,N,0.055,K,A*3E
$GNGGA,092553.00,4210.2126069,N,00841.2966334,W,1,12,0.77,453.910,M,50.789,M,,*5F
$GNGSA,A,3,06,19,20,03,09,07,04,11,,,,,1.39,0.77,1.16*14
$GNGSA,A,3,68,69,70,78,79,84,85,,,,,,1.39,0.77,1.16*17
$GPGSV,3,1,10,03,11,091,13,04,38,050,44,06,76,271,48,07,33,147,22*73
$GPGSV,3,2,10,09,77,050,46,11,42,309,39,17,09,198,24,19,25,222,44*75
$GPGSV,3,3,10,20,23,293,37,30,11,177,*75
$GLGSV,3,1,10,68,14,054,26,69,57,019,47,70,39,270,33,78,17,052,34*6F
$GLGSV,3,2,10,79,14,103,26,83,02,168,08,84,56,200,30,85,45,316,45*61
$GLGSV,3,3,10,86,04,335,25,,,,48*50
$GNGLL,4210.2126069,N,00841.2966334,W,092553.00,A,A*60
$GNRMC,092554.00,A,4210.2125877,N,00841.2966117,W,0.035,,091122,,,A*76
$GNVTG,,T,,M,0.035,N,0.065,K,A*38
$GNGGA,092554.00,4210.2125877,N,00841.2966117,W,1,12,0.89,453.913,M,50.789,M,,*5D
$GNGSA,A,3,06,19,20,03,09,07,04,11,,,,,1.46,0.89,1.16*1D
$GNGSA,A,3,68,69,70,78,79,84,85,,,,,,1.46,0.89,1.16*1E
$GPGSV,3,1,10,03,11,091,10,04,38,050,44,06,76,271,47,07,33,147,22*7F
$GPGSV,3,2,10,09,77,050,46,11,42,309,41,17,09,198,25,19,25,222,44*7B
$GPGSV,3,3,10,20,23,293,38,30,11,177,*7A
$GLGSV,3,1,10,68,14,054,25,69,57,019,47,70,39,270,32,78,17,052,34*6D
$GLGSV,3,2,10,79,14,103,25,83,02,168,13,84,56,200,30,85,45,316,45*68
$GLGSV,3,3,10,86,04,335,26,,,,48*53
$GNGLL,4210.2125877,N,00841.2966117,W,092554.00,A,A*60
$GNRMC,092555.00,A,4210.2125751,N,00841.2966013,W,0.009,,091122,,,A*76
$GNVTG,,T,,M,0.009,N,0.017,K,A*32
$GNGGA,092555.00,4210.2125751,N,00841.2966013,W,1,12,0.85,453.961,M,50.789,M,,*5B
$GNGSA,A,3,06,19,20,03,09,07,04,11,,,,,1.45,0.85,1.18*1C
$GNGSA,A,3,68,69,70,78,79,84,85,,,,,,1.45,0.85,1.18*1F
$GPGSV,3,1,10,03,11,091,11,04,38,050,44,06,76,271,47,07,33,147,23*7F
$GPGSV,3,2,10,09,77,050,47,11,42,309,41,17,09,198,24,19,25,222,44*7B
$GPGSV,3,3,10,20,23,293,39,30,11,177,*7B
$GLGSV,3,1,10,68,14,054,23,69,57,019,46,70,39,270,32,78,17,052,34*6A
$GLGSV,3,2,10,79,14,103,25,83,02,168,15,84,56,200,30,85,45,316,45*6E
$GLGSV,3,3,10,86,04,335,26,,,,48*53
$GNGLL,4210.2125751,N,00841.2966013,W,092555.00,A,A*6F
$GNRMC,092556.00,A,4210.2125659,N,00841.2965820,W,0.022,,091122,,,A*7E
$GNVTG,,T,,M,0.022,N,0.040,K,A*39
$GNGGA,092556.00,4210.2125659,N,00841.2965820,W,1,12,0.88,454.036,M,50.789,M,,*5B
$GNGSA,A,3,06,19,20,03,09,07,04,11,,,,,1.53,0.88,1.25*18
$GNGSA,A,3,68,69,70,78,79,84,85,,,,,,1.53,0.88,1.25*1B
$GPGSV,3,1,10,03,11,091,18,04,38,050,44,06,76,271,46,07,33,147,21*75
$GPGSV,3,2,10,09,77,050,46,11,42,309,41,17,09,198,24,19,25,222,44*7A
$GPGSV,3,3,10,20,23,293,39,30,11,177,*7B
$GLGSV,3,1,10,68,14,054,24,69,57,019,45,70,39,270,31,78,17,052,34*6D
$GLGSV,3,2,10,79,14,103,26,83,02,168,06,84,56,200,30,85,45,316,44*6E
$GLGSV,3,3,10,86,04,335,26,,,,47*5C
$GNGLL,4210.2125659,N,00841.2965820,W,092556.00,A,A*6E
$GNRMC,092557.00,A,4210.2125657,N,00841.2965528,W,0.046,,091122,,,A*76
$GNVTG,,T,,M,0.046,N,0.085,K,A*32
$GNGGA,092557.00,4210.2125657,N,00841.2965528,W,1,12,0.88,454.089,M,50.789,M,,*55
$GNGSA,A,3,06,19,20,03,09,07,04,11,,,,,1.53,0.88,1.25*18
$GNGSA,A,3,68,69,70,78,79,84,85,,,,,,1.53,0.88,1.25*1B
$GPGSV,3,1,10,03,11,091,17,04,38,050,44,06,76,271,47,07,33,147,21*7B
$GPGSV,3,2,10,09,77,050,47,11,42,309,42,17,09,198,23,19,25,222,44*7F
$GPGSV,3,3,10,20,23,293,39,30,11,177,*7B
$GLGSV,3,1,10,68,13,055,25,69,57,019,46,70,39,270,30,78,17,052,34*68
$GLGSV,3,2,10,79,14,103,25,83,02,168,09,84,56,200,29,85,45,316,44*6A
$GLGSV,3,3,10,86,04,335,25,,,,47*5F
$GNGLL,4210.2125657,N,00841.2965528,W,092557.00,A,A*64
$GNRMC,092558.00,A,4210.2125695,N,00841.2965346,W,0.081,,091122,,,A*72
$GNVTG,,T,,M,0.081,N,0.150,K,A*30
$GNGGA,092558.00,4210.2125695,N,00841.2965346,W,1,12,0.86,454.158,M,50.789,M,,*59
$GNGSA,A,3,06,19,20,03,09,07,04,11,,,,,1.45,0.86,1.17*10
$GNGSA,A,3,68,69,70,78,79,84,85,,,,,,1.45,0.86,1.17*13
$GPGSV,3,1,10,03,11,091,10,04,38,050,43,06,76,271,47,07,33,147,21*7B
$GPGSV,3,2,10,09,77,050,46,11,42,309,40,17,09,198,22,19,25,222,44*7D
$GPGSV,3,3,10,20,23,293,37,30,11,177,*75
$GLGSV,3,1,10,68,13,055,27,69,57,020,45,70,39,270,30,78,17,052,33*64
$GLGSV,3,2,10,79,14,103,23,83,02,168,08,84,56,200,29,85,45,316,43*6A
$GLGSV,3,3,10,86,04,335,24,,,,46*5F
$GNGLL,4210.2125695,N,00841.2965346,W,092558.00,A,A*6B
$GNRMC,092559.00,A,4210.2125797,N,00841.2965096,W,0.024,,091122,,,A*71
$GNVTG,,T,,M,0.024,N,0.045,K,A*3A
$GNGGA,092559.00,4210.2125797,N,00841.2965096,W,1,12,0.86,454.191,M,50.789,M,,*50
$GNGSA,A,3,06,19,20,03,09,07,04,11,,,,,1.45,0.86,1.17*10
$GNGSA,A,3,68,69,70,78,79,84,85,,,,,,1.45,0.86,1.17*13
$GPGSV,3,1,10,03,11,091,14,04,38,050,44,06,76,271,47,07,33,147,20*79
$GPGSV,3,2,10,09,77,050,46,11,42,309,42,17,09,198,22,19,25,222,44*7F
$GPGSV,3,3,10,20,23,293,39,30,11,177,*7B
$GLGSV,3,1,10,68,13,055,27,69,57,020,46,70,40,271,31,78,17,052,34*6E
$GLGSV,3,2,10,79,14,103,21,83,02,168,10,84,56,200,29,85,45,316,45*67
$GLGSV,3,3,10,86,04,335,22,,,,47*58
$GNGLL,4210.2125797,N,00841.2965096,W,092559.00,A,A*67
$GNRMC,092600.00,A,4210.2125899,N,00841.2964827,W,0.026,,091122,,,A*7E
$GNVTG,,T,,M,0.026,N,0.049,K,A*34
$GNGGA,092600.00,4210.2125899,N,00841.2964827,W,1,12,0.86,454.233,M,50.789,M,,*56
$GNGSA,A,3,06,19,20,03,09,07,04,11,,,,,1.45,0.86,1.18*1F
$GNGSA,A,3,68,69,70,78,79,84,85,,,,,,1.45,0.86,1.18*1C
$GPGSV,3,1,10,03,11,091,16,04,38,050,45,06,76,271,47,07,33,147,19*70
$GPGSV,3,2,10,09,77,050,46,11,42,309,42,17,09,198,,19,25,222,44*7F
$GPGSV,3,3,10,20,23,293,39,30,11,177,*7B
$GLGSV,3,1,10,68,13,055,28,69,57,020,46,70,40,271,30,78,17,052,34*60
$GLGSV,3,2,10,79,14,103,20,83,02,168,07,84,56,200,30,85,45,316,45*68
$GLGSV,3,3,10,86,04,335,22,,,,47*58
$GNGLL,4210.2125899,N,00841.2964827,W,092600.00,A,A*6A
$GNRMC,092601.00,A,4210.2125956,N,00841.2964483,W,0.008,,091122,,,A*73
$GNVTG,,T,,M,0.008,N,0.014,K,A*30
$GNGGA,092601.00,4210.2125956,N,00841.2964483,W,1,12,0.86,454.248,M,50.789,M,,*5B
$GNGSA,A,3,06,19,20,03,09,07,04,11,,,,,1.45,0.86,1.18*1F
$GNGSA,A,3,68,69,70,78,79,84,85,,,,,,1.45,0.86,1.18*1C
$GPGSV,3,1,10,03,11,091,16,04,38,050,45,06,76,271,46,07,33,147,20*7B
$GPGSV,3,2,10,09,77,050,45,11,42,309,42,17,09,198,,19,25,222,44*7C
$GPGSV,3,3,10,20,23,293,38,30,11,177,*7A
$GLGSV,3,1,10,68,13,055,28,69,57,020,46,70,40,271,30,78,17,052,34*60
$GLGSV,3,2,10,79,14,103,20,83,02,168,09,84,56,200,30,85,45,316,45*66
$GLGSV,3,3,10,86,04,335,22,,,,47*58
$GNGLL,4210.2125956,N,00841.2964483,W,092601.00,A,A*6B
$GNRMC,092602.00,A,4210.2126086,N,00841.2964200,W,0.022,,091122,,,A*72
$GNVTG,,T,,M,0.022,N,0.041,K,A*38
$GNGGA,092602.00,4210.2126086,N,00841.2964200,W,1,12,0.83,454.280,M,50.789,M,,*53
$GNGSA,A,3,06,19,20,03,09,07,04,11,,,,,1.41,0.83,1.13*15
$GNGSA,A,3,68,69,70,78,79,84,85,,,,,,1.41,0.83,1.13*16
$GPGSV,3,1,10,03,11,091,17,04,38,050,45,06,76,271,46,07,33,147,21*7B
$GPGSV,3,2,10,09,77,050,47,11,42,309,42,17,09,198,,19,25,222,44*7E
$GPGSV,3,3,10,20,23,293,38,30,11,177,*7A
$GLGSV,3,1,10,68,13,055,27,69,57,020,46,70,40,271,30,78,17,052,33*68
$GLGSV,3,2,10,79,14,103,22,83,02,168,07,84,56,200,30,85,45,316,45*6A
$GLGSV,3,3,10,86,04,335,24,,,,47*5E
$GNGLL,4210.2126086,N,00841.2964200,W,092602.00,A,A*62
$GNRMC,092603.00,A,4210.2126203,N,00841.2963958,W,0.031,,091122,,,A*7F
$GNVTG,,T,,M,0.031,N,0.058,K,A*32
$GNGGA,092603.00,4210.2126203,N,00841.2963958,W,1,12,0.83,454.339,M,50.789,M,,*5F
$GNGSA,A,3,06,19,20,03,09,07,04,11,,,,,1.41,0.83,1.13*15
$GNGSA,A,3,68,69,70,78,79,84,85,,,,,,1.41,0.83,1.13*16
$GPGSV,3,1,10,03,11,091,18,04,38,050,45,06,76,271,47,07,33,147,24*70
$GPGSV,3,2,10,09,77,050,46,11,42,309,42,17,09,198,,19,25,222,44*7F
$GPGSV,3,3,10,20,23,293,38,30,11,177,23*7B
$GLGSV,3,1,10,68,13,055,27,69,57,020,46,70,40,271,30,78,17,052,33*68
$GLGSV,3,2,10,79,14,103,23,83,02,168,09,84,56,200,30,85,45,316,45*65
$GLGSV,3,3,10,86,04,335,24,,,,47*5E
$GNGLL,4210.2126203,N,00841.2963958,W,092603.00,A,A*6D
$GNRMC,092604.00,A,4210.2126415,N,00841.2963620,W,0.055,,091122,,,A*7B
$GNVTG,,T,,M,0.055,N,0.103,K,A*3F
$GNGGA,092604.00,4210.2126415,N,00841.2963620,W,1,12,0.83,454.327,M,50.789,M,,*56
$GNGSA,A,3,06,19,20,03,09,07,04,11,,,,,1.41,0.83,1.13*15
$GNGSA,A,3,68,69,70,78,79,84,85,,,,,,1.41,0.83,1.13*16
$GPGSV,3,1,10,03,11,091,20,04,38,050,45,06,76,271,48,07,33,147,24*74
$GPGSV,3,2,10,09,77,050,46,11,42,309,42,17,09,198,,19,25,222,44*7F
$GPGSV,3,3,10,20,23,293,38,30,11,177,22*7A
$GLGSV,3,1,10,68,13,055,26,69,57,020,46,70,40,271,30,78,17,052,33*69
$GLGSV,3,2,10,79,14,103,24,83,02,168,10,84,56,200,30,85,45,316,45*6A
$GLGSV,3,3,10,86,04,335,25,,,,47*5F
$GNGLL,4210.2126415,N,00841.2963620,W,092604.00,A,A*6B
$GNRMC,092605.00,A,4210.2126589,N,00841.2963345,W,0.037,,091122,,,A*7C
$GNVTG,,T,,M,0.037,N,0.069,K,A*36
$GNGGA,092605.00,4210.2126589,N,00841.2963345,W,1,12,0.83,454.360,M,50.789,M,,*56
$GNGSA,A,3,06,19,20,03,09,07,04,11,,,,,1.41,0.83,1.13*15
$GNGSA,A,3,68,69,70,78,79,84,85,,,,,,1.41,0.83,1.13*16
$GPGSV,3,1,10,03,11,091,20,04,38,050,45,06,76,271,47,07,33,147,24*7B
$GPGSV,3,2,10,09,77,050,46,11,42,309,42,17,09,198,,19,25,222,43*78
$GPGSV,3,3,10,20,23,293,37,30,11,177,21*76
$GLGSV,3,1,10,68,13,055,28,69,57,020,45,70,40,271,31,78,17,052,33*65
$GLGSV,3,2,10,79,14,103,23,83,02,168,13,84,56,200,31,85,45,316,44*6E
$GLGSV,3,3,10,86,04,335,24,,,,47*5E
$GNGLL,4210.2126589,N,00841.2963345,W,092605.00,A,A*68
$GNRMC,092606.00,A,4210.2126741,N,00841.2962899,W,0.044,,091122,,,A*76
$GNVTG,,T,,M,0.044,N,0.081,K,A*34
$GNGGA,092606.00,4210.2126741,N,00841.2962899,W,1,12,0.83,454.348,M,50.789,M,,*52
$GNGSA,A,3,06,19,20,03,09,07,04,11,,,,,1.41,0.83,1.14*12
$GNGSA,A,3,68,69,70,78,79,84,85,,,,,,1.41,0.83,1.14*11
$GPGSV,3,1,10,03,11,091,21,04,38,050,44,06,76,271,48,07,33,147,25*75
$GPGSV,3,2,10,09,77,050,47,11,42,309,42,17,09,198,23,19,25,222,44*7F
$GPGSV,3,3,10,20,23,293,40,30,11,177,*75
$GLGSV,3,1,10,68,13,055,26,69,57,020,47,70,40,271,31,78,17,052,36*6C
$GLGSV,3,2,10,79,14,103,22,83,02,168,13,84,56,200,31,85,45,316,44*6F
$GLGSV,3,3,10,86,04,335,22,,,,47*58
$GNGLL,4210.2126741,N,00841.2962899,W,092606.00,A,A*66
$GNRMC,092607.00,A,4210.2126399,N,00841.2963155,W,0.288,,091122,,,A*7C
$GNVTG,,T,,M,0.288,N,0.534,K,A*3D
$GNGGA,092607.00,4210.2126399,N,00841.2963155,W,1,12,0.83,454.310,M,50.789,M,,*57
$GNGSA,A,3,06,19,20,03,09,07,04,11,,,,,1.41,0.83,1.14*12
$GNGSA,A,3,68,69,70,78,79,84,85,,,,,,1.41,0.83,1.14*11
$GPGSV,3,1,10,03,11,091,22,04,38,050,41,06,76,271,47,07,33,147,24*7D
$GPGSV,3,2,10,09,77,050,40,11,42,309,40,17,09,198,22,19,25,222,38*70
$GPGSV,3,3,10,20,23,293,40,30,11,177,24*73
$GLGSV,3,1,10,68,13,055,32,69,57,020,39,70,40,271,37,78,17,052,35*65
$GLGSV,3,2,10,79,14,103,31,83,02,168,11,84,56,200,31,85,45,316,45*6E
$GLGSV,3,3,10,86,04,335,20,,,,49*54
$GNGLL,4210.2126399,N,00841.2963155,W,092607.00,A,A*6E
$GNRMC,092608.00,A,4210.2126713,N,00841.2965093,W,0.683,278.39,091122,,,A*6E
$GNVTG,278.39,T,,M,0.683,N,1.264,K,A*28
$GNGGA,092608.00,4210.2126713,N,00841.2965093,W,1,12,0.83,454.409,M,50.789,M,,*5C
$GNGSA,A,3,06,19,20,03,09,07,04,11,30,,,,1.41,0.83,1.14*11
$GNGSA,A,3,68,69,70,78,79,84,85,,,,,,1.41,0.83,1.14*11
$GPGSV,3,1,10,03,11,091,20,04,38,050,37,06,76,271,46,07,33,147,23*78
$GPGSV,3,2,10,09,77,050,36,11,42,309,39,17,09,198,22,19,25,222,38*7F
$GPGSV,3,3,10,20,23,293,38,30,11,177,25*7D
$GLGSV,3,1,10,68,13,055,30,69,57,020,41,70,40,271,35,78,17,052,33*6C
$GLGSV,3,2,10,79,14,103,32,83,02,168,12,84,56,200,34,85,45,316,43*6D
$GLGSV,3,3,10,86,04,335,18,,,,46*50
$GNGLL,4210.2126713,N,00841.2965093,W,092608.00,A,A*6A
$GNRMC,092609.00,A,4210.2126762,N,00841.2966023,W,0.086,,091122,,,A*7B
$GNVTG,,T,,M,0.086,N,0.158,K,A*3F
$GNGGA,092609.00,4210.2126762,N,00841.2966023,W,1,12,0.83,454.569,M,50.789,M,,*54
$GNGSA,A,3,06,19,20,03,09,07,04,11,30,,,,1.41,0.83,1.14*11
$GNGSA,A,3,68,69,70,78,79,84,85,,,,,,1.41,0.83,1.14*11
$GPGSV,3,1,10,03,11,091,18,04,38,050,33,06,76,271,45,07,33,147,23*74
$GPGSV,3,2,10,09,77,050,35,11,42,309,33,17,09,198,23,19,25,222,48*70
$GPGSV,3,3,10,20,23,293,38,30,11,177,31*78
$GLGSV,3,1,10,68,13,055,21,69,57,020,39,70,40,271,35,78,17,052,20*61
$GLGSV,3,2,10,79,14,103,31,83,02,168,11,84,56,200,32,85,45,316,37*68
$GLGSV,3,3,10,86,04,335,18,,,,42*54
$GNGLL,4210.2126762,N,00841.2966023,W,092609.00,A,A*65
$GNRMC,092610.00,A,4210.2126799,N,00841.2966048,W,0.093,,091122,,,A*7E
$GNVTG,,T,,M,0.093,N,0.172,K,A*33
$GNGGA,092610.00,4210.2126799,N,00841.2966048,W,1,12,0.83,454.693,M,50.789,M,,*53
$GNGSA,A,3,06,19,20,03,09,07,04,11,30,,,,1.41,0.83,1.14*11
$GNGSA,A,3,68,69,70,78,79,84,85,,,,,,1.41,0.83,1.14*11
$GPGSV,3,1,10,03,11,091,17,04,38,050,35,06,76,271,48,07,33,147,24*77
$GPGSV,3,2,10,09,77,050,38,11,42,309,38,17,09,198,22,19,25,222,36*7E
$GPGSV,3,3,10,20,23,293,37,30,11,177,29*7E
$GLGSV,3,1,10,68,13,055,23,69,57,020,42,70,40,271,30,78,17,052,22*68
$GLGSV,3,2,10,79,14,103,34,83,02,168,09,84,56,200,31,85,45,316,43*64
$GLGSV,3,3,10,86,04,335,19,,,,46*51
$GNGLL,4210.2126799,N,00841.2966048,W,092610.00,A,A*64
$GNRMC,092611.00,A,4210.2127190,N,00841.2966388,W,0.020,,091122,,,A*76
$GNVTG,,T,,M,0.020,N,0.037,K,A*3B
$GNGGA,092611.00,4210.2127190,N,00841.2966388,W,1,12,0.74,454.901,M,50.789,M,,*5F
$GNGSA,A,3,06,19,20,03,09,07,04,11,30,,,,1.32,0.74,1.09*11
$GNGSA,A,3,68,69,70,78,79,84,85,,,,,,1.32,0.74,1.09*11
$GPGSV,3,1,10,03,11,091,17,04,38,050,35,06,76,271,48,07,33,147,21*72
$GPGSV,3,2,10,09,77,050,38,11,42,309,38,17,09,198,19,19,25,222,32*72
$GPGSV,3,3,10,20,23,293,38,30,11,177,27*7F
$GLGSV,3,1,10,68,13,055,23,69,57,020,42,70,40,271,30,78,17,052,22*68
$GLGSV,3,2,10,79,14,103,33,83,02,168,08,84,56,200,32,85,45,316,43*61
$GLGSV,3,3,10,86,04,335,17,,,,46*5F
$GNGLL,4210.2127190,N,00841.2966388,W,092611.00,A,A*64
$GNRMC,092612.00,A,4210.2127703,N,00841.2966864,W,0.055,,091122,,,A*72
$GNVTG,,T,,M,0.055,N,0.101,K,A*3D
$GNGGA,092612.00,4210.2127703,N,00841.2966864,W,1,12,0.74,455.071,M,50.789,M,,*56
$GNGSA,A,3,06,19,20,03,09,07,04,11,30,,,,1.32,0.74,1.09*11
$GNGSA,A,3,68,69,70,78,79,84,85,,,,,,1.32,0.74,1.09*11
$GPGSV,3,1,10,03,11,091,16,04,38,050,34,06,76,271,48,07,33,147,21*72
$GPGSV,3,2,10,09,77,050,39,11,42,309,38,17,09,198,15,19,25,222,32*7F
$GPGSV,3,3,10,20,23,293,38,30,11,177,27*7F
$GLGSV,3,1,10,68,13,055,23,69,57,020,43,70,40,271,31,78,17,052,20*6A
$GLGSV,3,2,10,79,14,103,32,83,02,168,11,84,56,200,31,85,45,316,43*6B
$GLGSV,3,3,10,86,04,335,13,,,,47*5A
$GNGLL,4210.2127703,N,00841.2966864,W,092612.00,A,A*62
$GNRMC,092613.00,A,4210.2128103,N,00841.2967300,W,0.060,,091122,,,A*74
$GNVTG,,T,,M,0.060,N,0.112,K,A*39
$GNGGA,092613.00,4210.2128103,N,00841.2967300,W,1,12,0.74,455.221,M,50.789,M,,*51
$GNGSA,A,3,06,19,20,03,09,07,04,11,30,,,,1.32,0.74,1.09*11
$GNGSA,A,3,68,69,70,78,79,84,85,,,,,,1.32,0.74,1.09*11
$GPGSV,3,1,10,03,11,091,16,04,38,050,34,06,76,271,48,07,33,147,20*73
$GPGSV,3,2,10,09,77,050,38,11,42,309,38,17,09,198,16,19,25,222,32*7D
$GPGSV,3,3,10,20,23,293,38,30,11,177,26*7E
$GLGSV,3,1,10,68,13,055,23,69,57,020,42,70,40,271,31,78,17,052,21*6A
$GLGSV,3,2,10,79,14,103,32,83,02,168,11,84,55,200,31,85,45,316,43*68
$GLGSV,3,3,10,86,04,335,09,,,,46*50
$GNGLL,4210.2128103,N,00841.2967300,W,092613.00,A,A*62
$GNRMC,092614.00,A,4210.2128227,N,00841.2967474,W,0.017,,091122,,,A*72
$GNVTG,,T,,M,0.017,N,0.032,K,A*3A
$GNGGA,092614.00,4210.2128227,N,00841.2967474,W,1,12,0.74,455.286,M,50.789,M,,*5A
$GNGSA,A,3,06,19,20,03,09,07,04,11,30,,,,1.32,0.74,1.09*11
$GNGSA,A,3,68,69,70,78,79,84,85,,,,,,1.32,0.74,1.09*11
$GPGSV,3,1,10,03,11,091,17,04,38,050,35,06,76,271,48,07,33,147,21*72
$GPGSV,3,2,10,09,77,050,38,11,42,309,38,17,09,198,17,19,25,222,33*7D
$GPGSV,3,3,10,20,23,293,37,30,11,177,25*72
$GLGSV,3,1,10,68,13,055,23,69,57,020,43,70,40,271,30,78,17,052,23*68
$GLGSV,3,2,10,79,14,103,32,83,02,168,13,84,55,200,32,85,45,315,43*6A
$GLGSV,3,3,10,86,04,335,08,,,,47*50
$GNGLL,4210.2128227,N,00841.2967474,W,092614.00,A,A*64
$GNRMC,092615.00,A,4210.2128151,N,00841.2967526,W,0.045,,091122,,,A*70
$GNVTG,,T,,M,0.045,N,0.083,K,A*37
$GNGGA,092615.00,4210.2128151,N,00841.2967526,W,1,12,0.83,455.344,M,50.789,M,,*58
$GNGSA,A,3,06,19,20,03,09,07,04,11,30,,,,1.41,0.83,1.14*11
$GNGSA,A,3,68,69,70,78,79,84,85,,,,,,1.41,0.83,1.14*11
$GPGSV,3,1,10,03,11,091,17,04,38,050,36,06,76,271,48,07,33,147,21*71
$GPGSV,3,2,10,09,77,050,38,11,42,309,38,17,09,198,17,19,25,222,33*7D
$GPGSV,3,3,10,20,23,293,37,30,11,177,24*73
$GLGSV,3,1,10,68,13,055,24,69,57,020,43,70,40,271,29,78,17,052,26*62
$GLGSV,3,2,10,79,14,103,32,83,02,168,09,84,55,200,31,85,45,315,42*63
$GLGSV,3,3,10,86,05,335,10,,,,46*59
$GNGLL,4210.2128151,N,00841.2967526,W,092615.00,A,A*61
$GNRMC,092616.00,A,4210.2127912,N,00841.2967702,W,0.110,,091122,,,A*76
$GNVTG,,T,,M,0.110,N,0.204,K,A*3B
$GNGGA,092616.00,4210.2127912,N,00841.2967702,W,1,12,0.83,455.340,M,50.789,M,,*5B
$GNGSA,A,3,06,19,20,03,09,07,04,11,30,,,,1.41,0.83,1.14*11
$GNGSA,A,3,68,69,70,78,79,84,85,,,,,,1.41,0.83,1.14*11
$GPGSV,3,1,10,03,11,091,16,04,38,050,34,06,76,271,48,07,33,147,21*72
$GPGSV,3,2,10,09,77,050,39,11,42,309,40,17,09,198,18,19,25,222,29*77
$GPGSV,3,3,10,20,23,293,36,30,11,177,23*75
$GLGSV,3,1,10,68,13,055,24,69,57,020,45,70,40,271,29,78,17,052,27*65
$GLGSV,3,2,10,79,14,103,27,83,02,168,12,84,55,200,32,85,45,315,41*6D
$GLGSV,3,3,10,86,05,335,11,,,,45*5B
$GNGLL,4210.2127912,N,00841.2967702,W,092616.00,A,A*66
$GNRMC,092617.00,A,4210.2127659,N,00841.2967797,W,0.059,,091122,,,A*77
$GNVTG,,T,,M,0.059,N,0.109,K,A*39
$GNGGA,092617.00,4210.2127659,N,00841.2967797,W,1,12,0.83,455.374,M,50.789,M,,*51
$GNGSA,A,3,06,19,20,03,09,07,04,11,30,,,,1.41,0.83,1.14*11
$GNGSA,A,3,68,69,70,78,79,84,85,,,,,,1.41,0.83,1.14*11
$GPGSV,3,1,10,03,11,091,15,04,38,050,35,06,76,271,49,07,33,147,19*7A
$GPGSV,3,2,10,09,77,050,39,11,42,309,40,17,09,198,17,19,25,222,34*74
$GPGSV,3,3,10,20,23,293,36,30,11,177,22*74
$GLGSV,3,1,10,68,13,055,24,69,57,020,45,70,40,271,30,78,17,052,28*62
$GLGSV,3,2,10,79,14,103,28,83,02,168,09,84,55,200,33,85,45,315,43*6B
$GLGSV,3,3,10,86,05,335,11,,,,46*58
$GNGLL,4210.2127659,N,00841.2967797,W,092617.00,A,A*6B
$GNRMC,092618.00,A,4210.2127021,N,00841.2967523,W,0.046,,091122,,,A*72
$GNVTG,,T,,M,0.046,N,0.084,K,A*33
$GNGGA,092618.00,4210.2127021,N,00841.2967523,W,1,12,0.83,455.368,M,50.789,M,,*57
$GNGSA,A,3,06,19,20,03,09,07,04,11,30,,,,1.41,0.83,1.14*11
$GNGSA,A,3,68,69,70,78,79,84,85,,,,,,1.41,0.83,1.14*11
$GPGSV,3,1,10,03,11,091,14,04,38,050,35,06,76,271,48,07,33,147,19*7A
$GPGSV,3,2,10,09,77,050,39,11,42,309,40,17,09,198,19,19,25,222,30*7E
$GPGSV,3,3,10,20,23,293,36,30,11,177,22*74
$GLGSV,3,1,10,68,13,055,23,69,57,020,44,70,40,271,30,78,17,052,29*65
$GLGSV,3,2,10,79,14,103,28,83,02,168,09,84,55,200,33,85,45,315,42*6A
$GLGSV,3,3,10,86,05,335,10,,,,45*5A
$GNGLL,4210.2127021,N,00841.2967523,W,092618.00,A,A*60
$GNRMC,092619.00,A,4210.2126206,N,00841.2966514,W,0.116,,091122,,,A*74
$GNVTG,,T,,M,0.116,N,0.216,K,A*3E
$GNGGA,092619.00,4210.2126206,N,00841.2966514,W,1,12,0.83,455.717,M,50.789,M,,*59
$GNGSA,A,3,06,19,20,03,09,07,04,11,30,,,,1.41,0.83,1.14*11
$GNGSA,A,3,68,69,70,78,79,84,85,,,,,,1.41,0.83,1.14*11
$GPGSV,3,1,10,03,11,091,13,04,38,050,36,06,76,271,48,07,33,147,19*7E
$GPGSV,3,2,10,09,77,050,40,11,42,309,40,17,09,198,18,19,25,222,26*76
$GPGSV,3,3,10,20,23,293,36,30,11,177,21*77
$GLGSV,3,1,10,68,13,055,21,69,57,020,45,70,40,271,30,78,17,052,28*67
$GLGSV,3,2,10,79,14,103,26,83,02,168,10,84,55,200,33,85,45,315,43*6D
$GLGSV,3,3,10,86,05,335,10,,,,45*5A
$GNGLL,4210.2126206,N,00841.2966514,W,092619.00,A,A*62
$GNRMC,092620.00,A,4210.2125352,N,00841.2965952,W,0.014,,091122,,,A*73
$GNVTG,,T,,M,0.014,N,0.027,K,A*3D
$GNGGA,092620.00,4210.2125352,N,00841.2965952,W,1,12,0.83,455.911,M,50.789,M,,*55
$GNGSA,A,3,06,19,20,03,09,07,04,11,30,,,,1.41,0.83,1.14*11
$GNGSA,A,3,68,69,70,78,79,84,85,,,,,,1.41,0.83,1.14*11
$GPGSV,3,1,10,03,11,092,12,04,38,050,36,06,76,271,48,07,33,147,19*7C
$GPGSV,3,2,10,09,77,050,40,11,42,309,40,17,09,198,19,19,25,222,31*71
$GPGSV,3,3,10,20,23,293,36,30,11,177,20*76
$GLGSV,3,1,10,68,13,055,21,69,57,020,44,70,40,271,31,78,17,052,29*66
$GLGSV,3,2,10,79,14,103,26,83,02,168,11,84,55,200,33,85,45,315,43*6C
$GLGSV,3,3,10,86,05,335,09,,,,44*53
$GNGLL,4210.2125352,N,00841.2965952,W,092620.00,A,A*66
$GNRMC,092621.00,A,4210.2124754,N,00841.2965856,W,0.056,,091122,,,A*72
$GNVTG,,T,,M,0.056,N,0.104,K,A*3B
$GNGGA,092621.00,4210.2124754,N,00841.2965856,W,1,12,0.86,456.017,M,50.789,M,,*5B
$GNGSA,A,3,06,19,20,09,07,04,11,30,,,,,1.45,0.86,1.18*1F
$GNGSA,A,3,68,69,70,78,79,84,85,,,,,,1.45,0.86,1.18*1C
$GPGSV,3,1,10,03,11,092,10,04,38,050,36,06,76,271,48,07,33,147,18*7F
$GPGSV,3,2,10,09,77,050,40,11,42,309,39,17,09,198,19,19,25,222,29*76
$GPGSV,3,3,10,20,23,293,37,30,11,177,20*77
$GLGSV,3,1,10,68,13,055,21,69,57,020,44,70,40,271,31,78,17,052,29*66
$GLGSV,3,2,10,79,14,103,26,83,02,168,10,84,55,200,33,85,45,315,43*6D
$GLGSV,3,3,10,86,05,335,,,,,45*5B
$GNGLL,4210.2124754,N,00841.2965856,W,092621.00,A,A*61
$GNRMC,092622.00,A,4210.2123844,N,00841.2965224,W,0.021,,091122,,,A*77
$GNVTG,,T,,M,0.021,N,0.039,K,A*34
$GNGGA,092622.00,4210.2123844,N,00841.2965224,W,1,12,0.83,456.231,M,50.789,M,,*5D
$GNGSA,A,3,06,19,20,03,09,07,04,11,30,,,,1.41,0.83,1.14*11
$GNGSA,A,3,68,69,70,78,79,84,85,,,,,,1.41,0.83,1.14*11
$GPGSV,3,1,10,03,11,092,10,04,38,050,36,06,76,271,48,07,33,147,16*71
$GPGSV,3,2,10,09,77,050,40,11,42,309,39,17,09,198,18,19,25,222,30*7F
$GPGSV,3,3,10,20,23,293,37,30,11,177,20*77
$GLGSV,3,1,10,68,13,055,20,69,57,020,44,70,40,271,32,78,17,052,29*64
$GLGSV,3,2,10,79,14,103,26,83,02,168,10,84,55,200,33,85,45,315,43*6D
$GLGSV,3,3,10,86,05,335,,,,,45*5B
$GNGLL,4210.2123844,N,00841.2965224,W,092622.00,A,A*64
$GNRMC,092623.00,A,4210.2123242,N,00841.2965117,W,0.030,,091122,,,A*79
$GNVTG,,T,,M,0.030,N,0.055,K,A*3E
$GNGGA,092623.00,4210.2123242,N,00841.2965117,W,1,12,0.83,456.458,M,50.789,M,,*5A
$GNGSA,A,3,06,19,20,03,09,07,04,11,30,,,,1.41,0.83,1.14*11
$GNGSA,A,3,68,69,70,78,79,84,85,,,,,,1.41,0.83,1.14*11
$GPGSV,3,1,10,03,11,092,10,04,38,050,38,06,76,269,47,07,33,147,15*7A
$GPGSV,3,2,10,09,77,050,38,11,42,309,39,17,09,198,17,19,25,222,30*7F
$GPGSV,3,3,10,20,23,293,37,30,11,177,19*7D
$GLGSV,3,1,10,68,13,055,20,69,57,020,45,70,40,271,31,78,17,052,29*66
$GLGSV,3,2,10,79,14,103,26,83,02,168,11,84,55,200,33,85,45,315,42*6D
$GLGSV,3,3,10,86,05,335,,,,,45*5B
$GNGLL,4210.2123242,N,00841.2965117,W,092623.00,A,A*6A
$GNRMC,092624.00,A,4210.2122483,N,00841.2964914,W,0.057,,091122,,,A*7F
$GNVTG,,T,,M,0.057,N,0.105,K,A*3B
$GNGGA,092624.00,4210.2122483,N,00841.2964914,W,1,12,0.83,456.591,M,50.789,M,,*59
$GNGSA,A,3,06,19,20,03,09,07,04,11,30,,,,1.41,0.83,1.14*11
$GNGSA,A,3,68,69,70,78,79,84,85,,,,,,1.41,0.83,1.14*11
$GPGSV,3,1,10,03,11,092,13,04,38,050,37,06,76,269,48,07,34,147,15*7E
$GPGSV,3,2,10,09,77,050,39,11,42,309,39,17,09,198,14,19,25,222,31*7C
$GPGSV,3,3,10,20,23,293,37,30,11,177,19*7D
$GLGSV,3,1,10,68,13,055,19,69,57,020,44,70,40,271,31,78,17,052,30*65
$GLGSV,3,2,10,79,14,103,26,83,02,168,08,84,55,200,33,85,45,315,43*64
$GLGSV,3,3,10,86,05,335,,,,,45*5B
$GNGLL,4210.2122483,N,00841.2964914,W,092624.00,A,A*6D
$GNRMC,092625.00,A,4210.2121613,N,00841.2964816,W,0.020,,091122,,,A*75
$GNVTG,,T,,M,0.020,N,0.038,K,A*34
$GNGGA,092625.00,4210.2121613,N,00841.2964816,W,1,12,0.83,456.665,M,50.789,M,,*5B
$GNGSA,A,3,06,19,20,03,09,07,04,11,30,,,,1.41,0.83,1.14*11
$GNGSA,A,3,68,69,70,78,79,84,85,,,,,,1.41,0.83,1.14*11
$GPGSV,3,1,10,03,11,092,10,04,38,050,37,06,76,269,48,07,34,147,17*7F
$GPGSV,3,2,10,09,77,050,39,11,42,309,39,17,09,198,14,19,25,222,32*7F
$GPGSV,3,3,10,20,23,293,37,30,11,177,19*7D
$GLGSV,3,1,10,68,13,055,18,69,57,020,45,70,40,271,32,78,17,052,31*67
$GLGSV,3,2,10,79,14,103,26,83,02,168,08,84,55,200,33,85,45,315,42*65
$GLGSV,3,3,10,86,05,335,,,,,45*5B
$GNGLL,4210.2121613,N,00841.2964816,W,092625.00,A,A*67
$GNRMC,092626.00,A,4210.2120909,N,00841.2964605,W,0.036,,091122,,,A*78
$GNVTG,,T,,M,0.036,N,0.066,K,A*38
$GNGGA,092626.00,4210.2120909,N,00841.2964605,W,1,12,0.83,456.727,M,50.789,M,,*56
$GNGSA,A,3,06,19,20,03,09,07,04,11,30,,,,1.41,0.83,1.14*11
$GNGSA,A,3,68,69,70,78,79,84,85,,,,,,1.41,0.83,1.14*11
$GPGSV,3,1,10,03,11,092,14,04,38,050,37,06,76,269,48,07,34,147,19*75
$GPGSV,3,2,10,09,77,050,39,11,42,309,39,17,09,198,15,19,25,222,31*7D
$GPGSV,3,3,10,20,23,293,37,30,11,177,21*76
$GLGSV,3,1,10,68,13,055,20,69,57,020,45,70,40,271,32,78,17,052,30*6D
$GLGSV,3,2,10,79,14,103,26,83,02,168,10,84,55,200,33,85,45,315,42*6C
$GLGSV,3,3,10,86,05,335,,,,,45*5B
$GNGLL,4210.2120909,N,00841.2964605,W,092626.00,A,A*6D
$GNRMC,092627.00,A,4210.2120161,N,00841.2964259,W,0.039,,091122,,,A*7D
$GNVTG,,T,,M,0.039,N,0.072,K,A*32
$GNGGA,092627.00,4210.2120161,N,00841.2964259,W,1,12,0.86,456.767,M,50.789,M,,*5D
$GNGSA,A,3,06,19,20,03,09,07,04,11,30,,,,1.46,0.86,1.18*1F
$GNGSA,A,3,68,69,70,78,79,84,85,,,,,,1.46,0.86,1.18*1F
$GPGSV,3,1,10,03,11,092,13,04,38,050,37,06,76,269,48,07,34,147,19*72
$GPGSV,3,2,10,09,77,050,40,11,42,309,39,17,09,198,14,19,25,222,31*72
$GPGSV,3,3,10,20,23,293,37,30,11,177,22*75
$GLGSV,3,1,10,68,13,055,22,69,57,020,45,70,40,271,32,78,17,052,29*67
$GLGSV,3,2,10,79,14,103,25,83,02,168,09,84,55,200,33,85,45,315,43*66
$GLGSV,3,3,10,86,05,335,,,,,45*5B
$GNGLL,4210.2120161,N,00841.2964259,W,092627.00,A,A*67
$GNRMC,092628.00,A,4210.2119449,N,00841.2963875,W,0.021,,091122,,,A*7D
$GNVTG,,T,,M,0.021,N,0.039,K,A*34
$GNGGA,092628.00,4210.2119449,N,00841.2963875,W,1,12,0.86,456.830,M,50.789,M,,*59
$GNGSA,A,3,06,19,20,03,09,07,04,11,30,,,,1.46,0.86,1.18*1F
$GNGSA,A,3,68,69,70,78,79,84,85,,,,,,1.46,0.86,1.18*1F
$GPGSV,3,1,10,03,11,092,15,04,38,050,37,06,76,269,48,07,34,147,20*7E
$GPGSV,3,2,10,09,77,050,40,11,42,309,39,17,09,198,15,19,25,222,32*70
$GPGSV,3,3,10,20,23,293,38,30,11,177,22*7A
$GLGSV,3,1,10,68,13,055,23,69,57,020,44,70,40,271,32,78,17,052,29*67
$GLGSV,3,2,10,79,14,103,24,83,02,168,12,84,55,200,33,85,45,315,43*6D
$GLGSV,3,3,10,86,05,335,,,,,44*5A
$GNGLL,4210.2119449,N,00841.2963875,W,092628.00,A,A*6E
$GNRMC,092629.00,A,4210.2118575,N,00841.2963539,W,0.038,,091122,,,A*7E
$GNVTG,,T,,M,0.038,N,0.071,K,A*30
